pincode,code,type,type_encode,rent_per_sqft,district,statename,latitude,longitude,urban,nearest_airport_km,nearest_airport_name,nearest_railway_km,nearest_railway_name,num_hospitals,pincode_population,area_km2,population_density,male_population,female_population,state_gdp,state_population,pincode_gdp,state_civil_cases,state_criminal_cases
110002,N33,Branch,1,83.13,CENTRAL,DELHI,28.6445,77.2231389,1.0,6.883030973895371,Safdarjung Airport (VIDD),0.3907354956279018,NEW DELHI,0.0,180479.0,15.16,11904.947229551452,95754.0,84725.0,11077.0,18941837.0,105.54234433545172,430.0,317.0
110017,S01,Branch,1,149.41,SOUTH,DELHI,28.528842,77.222557,1.0,6.401485420358871,Safdarjung Airport (VIDD),5.342334839015362,OKHLA,0.0,236041.0,10.41,22674.44764649375,126212.0,109829.0,11077.0,18941837.0,138.03445552825738,430.0,317.0
110020,S13,Branch,1,40.482,SOUTH,DELHI,28.52,77.29,1.0,10.911746114776715,Safdarjung Airport (VIDD),0.9772034865405272,TUGLAKABAD,0.0,202963.0,8.44,24047.74881516588,110392.0,92571.0,11077.0,18941837.0,118.69076642355226,430.0,317.0
110025,S17,Branch,1,98.29,BUDAUN,UTTAR PRADESH,28.5425556,77.2931667,1.0,9.723581832998162,Safdarjung Airport (VIDD),1.7291791977186133,TUGLAKABAD EAST CABIN,0.0,269837.0,17.03,15844.803288314735,145551.0,124286.0,25479.0,221560649.0,31.030676945706183,66062.0,203726.0
110028,N03,Branch,1,72.93,NEW DELHI,DELHI,28.632141,77.138852,0.0,7.971343641509921,New Delhi International Airport (DEL/VIDP),0.6261647565666417,INDRAPURI,0.0,119198.0,4.8,24832.916666666668,66506.0,52692.0,11077.0,18941837.0,69.70581818437145,430.0,317.0
110037,N05,Hub,0,36.4,NEW DELHI,DELHI,28.5556389,77.0845556,1.0,2.7202164910249884,New Delhi International Airport (DEL/VIDP),1.374230949413666,SHAHABAD MOHAMADPUR,0.0,165715.0,40.86,4055.677924620656,92299.0,73416.0,11077.0,18941837.0,96.90850232741418,430.0,317.0
110037,S03,Branch,1,95.195,NEW DELHI,DELHI,28.5556389,77.0845556,1.0,2.7202164910249884,New Delhi International Airport (DEL/VIDP),1.374230949413666,SHAHABAD MOHAMADPUR,0.0,165715.0,40.86,4055.677924620656,92299.0,73416.0,11077.0,18941837.0,96.90850232741418,430.0,317.0
110042,N17,Branch,1,85.11,NORTH,DELHI,28.72775,77.1636111,0.0,16.452157815418765,Safdarjung Airport (VIDD),1.5003842374192289,NAYA AZADPUR,0.0,383714.0,40.65,9439.458794587948,206781.0,176933.0,11077.0,18941837.0,224.39217368410468,430.0,317.0
110052,N09,Branch,1,118.57,NORTH,DELHI,28.6930833,77.1823056,0.0,12.28981368329566,Safdarjung Airport (VIDD),1.1950760358450845,DELHI AZADPUR,0.0,195035.0,10.02,19464.57085828343,104150.0,90885.0,11077.0,18941837.0,114.05454998900056,430.0,317.0
110055,N10,Branch,1,101.63,CENTRAL,DELHI,28.6401667,77.2129167,1.0,6.228755617131326,Safdarjung Airport (VIDD),0.7316960872975561,NEW DELHI,0.0,132862.0,3.65,36400.54794520548,70760.0,62102.0,11077.0,18941837.0,77.69639101001661,430.0,317.0
110074,S26,Branch,1,69.11,SOUTH,DELHI,28.5073055,77.1845555,1.0,8.830903579111919,Safdarjung Airport (VIDD),7.358549347293377,Shankar,0.0,286588.0,88.66,3232.438529212723,153245.0,133343.0,11077.0,18941837.0,167.5938440395195,430.0,317.0
110078,S09,Branch,1,46.19,SOUTH WEST,DELHI,28.598435,77.022021,1.0,9.38824582946396,New Delhi International Airport (DEL/VIDP),6.407610859392313,SHAHABAD MOHAMADPUR,0.0,120527.0,8.01,15047.066167290886,64396.0,56131.0,11077.0,18941837.0,70.48300431473463,430.0,317.0
110087,N11,Branch,1,61.086666666666666,WEST,DELHI,28.6800278,77.07875,1.0,13.158166626797792,New Delhi International Airport (DEL/VIDP),1.2077163400781197,MANGOLPURI,0.0,120500.0,6.15,19593.49593495935,64301.0,56199.0,11077.0,18941837.0,70.46721498025772,430.0,317.0
110092,N02,Branch,1,52.55,EAST,DELHI,28.6522222,77.3064444,0.0,8.015195721698488,Hindon AFS (VIDX),0.8413780380229875,ANAND VIHAR,0.0,545086.0,29.13,18712.186749055956,288529.0,256557.0,11077.0,18941837.0,318.7609323214005,430.0,317.0
110095,N15,Branch,1,60.61,SHAHDARA,DELHI,28.68254,77.31315,1.0,5.26707673693408,Hindon AFS (VIDX),1.197106978852997,DELHI SHAHDARA A PANEL,0.0,255541.0,9.52,26842.542016806725,135082.0,120459.0,11077.0,18941837.0,149.4378637615771,430.0,317.0
121001,S02,Branch,1,43.77,FARIDABAD,HARYANA,28.2004722,77.2058333,1.0,29.49595483674496,NSG Heliport,12.824534280161778,ASAOTI,128.0,383462.0,28.77,13328.53667014251,204834.0,178628.0,10955.0,22989234.0,182.73015142653296,31.0,12.0
121004,S27,Branch,1,34.23,PALWAL,HARYANA,25.03969,86.903551,1.0,25.649304912577534,Bhagalpur Airport,9.542688719512553,Bela Halt,50.0,782482.0,516.16,1515.9679169249846,416810.0,365672.0,10955.0,22989234.0,372.8741162058727,31.0,12.0
122001,L04,Hub,0,44.912,GURUGRAM,HARYANA,28.4486944,77.0293056,1.0,3.118460742682807,Gurugram Airfield,4.848549763977232,BASAI DHANKOT,193.0,363459.0,50.3,7225.82504970179,196540.0,166919.0,10955.0,22989234.0,173.19817376255338,31.0,12.0
122001,L14,Branch,1,33.8,GURUGRAM,HARYANA,28.4486944,77.0293056,1.0,3.118460742682807,Gurugram Airfield,4.848549763977232,BASAI DHANKOT,193.0,363459.0,50.3,7225.82504970179,196540.0,166919.0,10955.0,22989234.0,173.19817376255338,31.0,12.0
122002,L02,Branch,1,93.478,GURUGRAM,HARYANA,28.466093,77.1058349,0.0,4.7468069347675925,Gurugram Airfield,9.007338386124312,PALAM VIHAR HALT,25.0,77628.0,14.12,5497.7337110481585,41897.0,35731.0,10955.0,22989234.0,36.99186932457167,31.0,12.0
122018,L27,Branch,1,63.28,GURUGRAM,HARYANA,28.462,77.0316389,0.0,2.530694748350351,Gurugram Airfield,3.646527325612193,GURGAON,2.0,91624.0,13.0,7048.0,49546.0,42078.0,10955.0,22989234.0,43.66134687219243,31.0,12.0
124001,J25,Branch,1,25.01,ROHTAK,HARYANA,28.405859,76.215935,1.0,36.57193464020869,Bhilwara Airport,10.957730752649931,Gurha Kemla,69.0,312170.0,185.77,1680.4112612370134,166818.0,145352.0,10955.0,22989234.0,148.7575597342652,31.0,12.0
124507,J37,Branch,1,25.91,JHAJJAR,HARYANA,28.681179,76.902704,1.0,2.593728796935258,Bahadurgarh Government College Helipad,3.513882629599893,BAHADURGARH,12.0,98617.0,22.67,4350.110277900309,53347.0,45270.0,10955.0,22989234.0,46.99370300898238,31.0,12.0
125001,J07,Branch,1,41.2,HISAR,HARYANA,29.1745833,75.7172778,1.0,3.730311766199737,Hissar Airport (HSS/VIHR),2.565628886189215,Hisar,89.0,306007.0,951.7,321.53724913313016,163492.0,142515.0,10955.0,22989234.0,145.82072134286858,31.0,12.0
125050,J36,Branch,1,27.08,HISAR,HARYANA,29.508192,75.4535162,1.0,43.67598877456374,Sirsa AFS (VISA),17.21510651030419,Mehuwala Halt,16.0,264138.0,749.47,352.433052690568,139126.0,125012.0,10955.0,22989234.0,125.8689954610928,31.0,12.0
131028,J26,Branch,1,23.19,SONIPAT,HARYANA,29.05,76.91,1.0,10.240112469442396,Sonipat Police Line Helipad,10.082870870958873,SANDAL KALAN,1.0,77191.0,34.74,2221.963154864709,41631.0,35560.0,10955.0,22989234.0,36.78362684898505,31.0,12.0
132001,J15,Branch,1,58.52,KARNAL,HARYANA,29.7096667,77.0098611,1.0,2.709901300990259,Karnal Airport,4.216084280567656,KARNAL,75.0,436509.0,380.16,1148.2244318181818,231613.0,204896.0,10955.0,22989234.0,208.00850063120848,31.0,12.0
132103,J04,Branch,1,30.95,PANIPAT,HARYANA,29.3919611,76.9767305,1.0,36.37567717359685,Karnal Airport,1.2974378433441476,PANIPAT JN,89.0,208372.0,273.72,761.2596814262749,111969.0,96403.0,10955.0,22989234.0,99.29496824470098,31.0,12.0
134003,J10,Hub,0,15.0,AMBALA,HARYANA,30.3775,76.7654722,0.0,4.681886929996055,Ambala AFS (VIAM),0.1798433351926524,AMBALA CITY,32.0,179812.0,73.25,2454.7713310580207,95657.0,84155.0,10955.0,22989234.0,85.68534558393725,31.0,12.0
134113,J29,Hub,0,38.59,PANCHKULA,HARYANA,30.6765722,76.8369361,0.0,4.600218681238501,Chandigarh AFS (IXC/VICG),3.1619890897090506,CHANDIGARH,0.0,66084.0,6.76,9775.739644970414,35384.0,30700.0,10955.0,22989234.0,31.490836971775572,31.0,12.0
140124,J19,Branch,1,43.79,RUPNAGAR,PUNJAB,30.692051,76.69841,1.0,8.909276276367798,Chandigarh AFS (IXC/VICG),4.908506719774224,SAS NAGAR MOHALI,2.0,24244.0,25.03,968.5976827806631,12443.0,11801.0,7449.0,29985191.0,6.02275823422302,54.0,24.0
140301,J54,Branch,1,37.88,S.A.S Nagar,PUNJAB,30.9666111,76.3715277,1.0,41.85903272711951,Ludhiana Airport (LUH/VILD),15.433645646683402,RUPNAGAR,3.0,191328.0,164.6,1162.381530984204,101778.0,89550.0,7449.0,29985191.0,47.530204893475585,54.0,24.0
140401,J16,Branch,1,31.835,PATIALA,PUNJAB,30.486038,76.592572,1.0,24.71275567523663,Ambala AFS (VIAM),0.1464504995236729,RAJPURA JN,14.0,97256.0,72.49,1341.647123741206,51437.0,45819.0,7449.0,29985191.0,24.160591273205497,54.0,24.0
141003,J03,Branch,1,44.47,LUDHIANA,PUNJAB,30.8808333,75.8594722,0.0,9.3513585838396,Ludhiana Airport (LUH/VILD),1.9476742694461897,DHANDARIKALAN BLOCK HUT,12.0,223461.0,20.35,10980.88452088452,120054.0,103407.0,7449.0,29985191.0,55.51276925332909,54.0,24.0
142001,J48,Branch,1,68.26,MOGA,PUNJAB,30.81337,75.175565,1.0,43.988769070442885,Halwara AFS (VIHX),0.8062496226599575,Moga,35.0,83383.0,57.96,1438.6300897170463,44009.0,39374.0,7449.0,29985191.0,20.714224131505446,54.0,24.0
143001,J05,Branch,1,44.1,AMRITSAR,PUNJAB,31.6374921,74.8660101,1.0,10.223120152322066,Amritsar International Airport (ATQ/VIAR),1.0068061198427949,AMRITSAR JN,149.0,196260.0,24.69,7948.967193195625,104362.0,91898.0,7449.0,29985191.0,48.755425303110464,54.0,24.0
144001,J02,Branch,1,26.25,JALANDHAR,PUNJAB,31.33113001,75.57707737,1.0,5.200010276319662,PAP Complex Heliport,1.3710549502206852,JALANDHAR CITY,77.0,155672.0,25.77,6040.8226620100895,82359.0,73313.0,7449.0,29985191.0,38.6724476092215,54.0,24.0
144401,J17,Branch,1,41.35,KAPURTHALA,PUNJAB,31.2529039,75.7614479,1.0,5.558450950838853,LPU Helipad,3.9493892477423778,PHAGWARA JN,10.0,104741.0,110.74,945.8280657395702,54684.0,50057.0,7449.0,29985191.0,26.02003465644091,54.0,24.0
145001,J11,Branch,1,33.56,PATHANKOT,PUNJAB,32.33,75.8,0.0,8.173370402183119,Jharoli Army Heliport,5.950116717749399,KANDWAL HALT,32.0,184359.0,138.89,1327.374181006552,98581.0,85778.0,7449.0,29985191.0,45.798947587160605,54.0,24.0
147001,J18,Branch,1,42.54,PATIALA,PUNJAB,31.3246944,76.4062778,1.0,33.3582761841721,Bilaspur Helipad,3.146249613495666,BHANUPLI,66.0,59612.0,187.82,317.3889894579917,31520.0,28092.0,7449.0,29985191.0,14.808969801126164,54.0,24.0
151001,J08,Branch,1,29.56,BATHINDA,PUNJAB,30.204677,74.949001,0.0,6.59843973112352,Mehna Heliport,1.6088907214130657,BHATINDA CANTT,60.0,308604.0,463.74,665.4677189804631,164377.0,144227.0,7449.0,29985191.0,76.66421721309028,54.0,24.0
160055,J21,Branch,1,37.54,S.A.S Nagar,PUNJAB,30.73256,76.72081,1.0,9.26924559409276,Chandigarh AFS (IXC/VICG),7.610576855088445,SAS NAGAR MOHALI,13.0,77271.0,14.0,5519.357142857143,41542.0,35729.0,7449.0,29985191.0,19.195865018835462,54.0,24.0
171003,J14,Branch,1,92.55,SHIMLA,HIMACHAL PRADESH,31.104605,77.173424,0.0,1.740877355836692,Annandale Helipad,1.3002461821892917,Shimla,0.0,76978.0,42.87,1795.614648938652,40411.0,36567.0,2074.0,7477590.0,21.350779061168105,32.0,6.0
173205,J33,Branch,1,30.07,SOLAN,HIMACHAL PRADESH,30.904486,77.096736,0.0,19.90581262993848,Shimla Airport (SLV/VISM),0.3911578953963377,Solan,7.0,73926.0,133.7,552.9244577412118,42405.0,31521.0,2074.0,7477590.0,20.504269958636403,32.0,6.0
173212,J39,Branch,1,42.0,SOLAN,HIMACHAL PRADESH,30.904486,77.096736,1.0,19.90581262993848,Shimla Airport (SLV/VISM),0.3911578953963377,Solan,9.0,63216.0,121.75,519.2279260780288,33269.0,29947.0,2074.0,7477590.0,17.533721961220124,32.0,6.0
180001,N37,Branch,1,31.42,JAMMU,JAMMU AND KASHMIR,32.7360277,74.8428888,1.0,5.24348970832071,Jammu Airport (Satwari Airport) (IXJ/VIJU),4.750282728610736,JAMMU TAWI,10.0,47140.0,7.81,6035.851472471191,25139.0,22001.0,2411.0,7780883.0,14.606894872985496,269.0,99.0
190001,N38,Branch,1,66.225,SRINAGAR,JAMMU AND KASHMIR,34.0716944,74.8106111,1.0,4.403804935239918,Rainawari Barracks Helipad,46.05681058447817,Anantnag,9.0,40358.0,34.61,1166.0791678705575,21276.0,19082.0,2411.0,7780883.0,12.505410761220803,269.0,99.0
201002,U11,Hub,0,22.582,GHAZIABAD,UTTAR PRADESH,28.6741667,77.4470833,0.0,9.374903351079196,Hindon AFS (VIDX),0.8857626631978561,NEW GHAZIABAD,48.0,397447.0,45.32,8769.792586054722,211563.0,185884.0,25479.0,221560649.0,45.70555357508454,66062.0,203726.0
201007,U30,Branch,1,30.63,GHAZIABAD,UTTAR PRADESH,28.67838605,77.37473742,0.0,3.607085398552704,Hindon AFS (VIDX),1.1376481053934966,SAHIBABAD,2.0,79576.0,6.64,11984.33734939759,42350.0,37226.0,25479.0,221560649.0,9.151069529499347,66062.0,203726.0
201301,N30,Branch,1,44.2,GAUTAM BUDDHA NAGAR,UTTAR PRADESH,28.579201,77.324242,1.0,11.5798748103072,Safdarjung Airport (VIDD),5.834663783701109,TUGLAKABAD EAST CABIN,120.0,325356.0,26.69,12190.18358935931,176123.0,149233.0,25479.0,221560649.0,37.41524301095543,66062.0,203726.0
201304,N31,Branch,1,27.56,GAUTAM BUDDHA NAGAR,UTTAR PRADESH,28.494211,77.414254,0.0,22.702736049673977,Safdarjung Airport (VIDD),11.56014728663118,TUGLAKABAD CABIN,8.0,307949.0,69.98,4400.52872249214,166248.0,141701.0,25479.0,221560649.0,35.413475300841895,66062.0,203726.0
201305,N42,Branch,1,83.33,GAUTAM BUDDHA NAGAR,UTTAR PRADESH,28.539212,77.406374,0.0,19.299565374725027,Hindon AFS (VIDX),10.185390831858507,MARIPAT,4.0,197169.0,104.86,1880.3070761014687,105995.0,91174.0,25479.0,221560649.0,22.67401261764674,66062.0,203726.0
201306,N32,Branch,1,29.51,GAUTAM BUDDHA NAGAR,UTTAR PRADESH,28.531767,77.434227,0.0,20.898951108834353,Hindon AFS (VIDX),8.561012768696427,MARIPAT,8.0,143007.0,89.45,1598.7367244270542,77006.0,66001.0,25479.0,221560649.0,16.44549864538445,66062.0,203726.0
202001,U16,Branch,1,23.28,ALIGARH,UTTAR PRADESH,27.9135016,78.0781901,1.0,8.934425275513638,Dhanipur Airstrip (VIAH),2.6833463357058744,ALIGARH JN,59.0,707829.0,87.7,8071.026225769669,375090.0,332739.0,25479.0,221560649.0,81.39881866386841,66062.0,203726.0
203001,U145,Branch,1,25.65,BULANDSHAHR,UTTAR PRADESH,28.4024615,77.7975797,1.0,54.659815946313785,Hindon AFS (VIDX),4.413801908575819,Numaishgarh Halt,30.0,532616.0,337.13,1579.8534689882242,280744.0,251872.0,25479.0,221560649.0,61.24969901130773,66062.0,203726.0
206122,U83,Branch,1,7.24,AURAIYA,UTTAR PRADESH,26.4707266,79.5714855,1.0,66.05283770229073,Kalyanpur Airport,15.386147028181236,PARA JANI HALT,5.0,242603.0,332.16,730.3799373795761,130304.0,112299.0,25479.0,221560649.0,27.89882528733701,66062.0,203726.0
208011,U40,Branch,1,25.03,KANPUR NAGAR,UTTAR PRADESH,26.43044,80.32313,0.0,4.269427335525002,Kanpur Airport (KNU/VIKA),2.5308972220616015,JUHI OUTER CABIN,9.0,323339.0,24.04,13450.041597337771,173793.0,149546.0,25479.0,221560649.0,37.18329233184364,66062.0,203726.0
208021,U03,Branch,1,20.32,KANPUR NAGAR,UTTAR PRADESH,26.39973,80.31465,0.0,6.744575322545925,Kanpur Airport (KNU/VIKA),5.561559536398041,CHANDARI,4.0,205839.0,70.3,2928.0085348506404,110638.0,95201.0,25479.0,221560649.0,23.671044044468385,66062.0,203726.0
211001,U02,Branch,1,45.94,PRAYAGRAJ,UTTAR PRADESH,25.45347,81.82738,1.0,4.341972812730731,Prayagraj Helipad,0.8166565458999631,ALLAHABAD JN,41.0,185698.0,14.74,12598.236092265945,100939.0,84759.0,25479.0,221560649.0,21.354872191225617,66062.0,203726.0
221010,U130,Branch,1,22.5,VARANASI,UTTAR PRADESH,25.6682778,82.9965833,1.0,27.696997298484405,Varanasi Airport (VNS/VIBN),7.053606145727198,Dodhi,19.0,254073.0,11.83,21477.00760777684,133621.0,120452.0,25479.0,221560649.0,29.21785071590037,66062.0,203726.0
221011,U04,Branch,1,17.73,VARANASI,UTTAR PRADESH,25.281,82.979,0.0,3.2721543257806887,BHU Airfield,2.2244436763511484,MANDUADIH,1.0,157220.0,69.48,2262.809441565918,82673.0,74547.0,25479.0,221560649.0,18.07996319779691,66062.0,203726.0
224001,U26,Branch,1,45.8,AYODHYA,UTTAR PRADESH,26.571617,82.417008,1.0,20.40814513962063,Akbarpur Airport,3.2787156462152316,GOSHAINGANJ,19.0,353005.0,241.49,1461.7789556503374,180248.0,172757.0,25479.0,221560649.0,40.59481878029704,66062.0,203726.0
225001,U135,Branch,1,25.01,BARABANKI,UTTAR PRADESH,26.9296944,81.1981667,1.0,29.33265503175812,Lucknow Helipad,1.8099968127576336,BARABANKI JN,12.0,193248.0,79.03,2445.248639757054,100982.0,92266.0,25479.0,221560649.0,22.22310601735058,66062.0,203726.0
226002,U43,Hub,0,19.95,LUCKNOW,UTTAR PRADESH,26.784166,81.042288,0.0,11.676065962385527,Lucknow Helipad,1.2815080885688632,BAKAS,9.0,121049.0,35.08,3450.655644241733,63024.0,58025.0,25479.0,221560649.0,13.92037568458287,66062.0,203726.0
226002,U139,Branch,1,19.0,LUCKNOW,UTTAR PRADESH,26.784166,81.042288,0.0,11.676065962385527,Lucknow Helipad,1.2815080885688632,BAKAS,9.0,121049.0,35.08,3450.655644241733,63024.0,58025.0,25479.0,221560649.0,13.92037568458287,66062.0,203726.0
226006,U48,Branch,1,83.38,LUCKNOW,UTTAR PRADESH,26.86875,80.95875,0.0,6.3684232126744735,Lucknow Helipad,0.2593926797772896,BADSHAHNAGAR,24.0,55048.0,5.01,10987.624750499002,28661.0,26387.0,25479.0,221560649.0,6.3304020742419835,66062.0,203726.0
226010,U143,Branch,1,30.07,LUCKNOW,UTTAR PRADESH,26.867149,80.003078,0.0,44.80970974786215,Kalyanpur Airport,3.6483514556898737,BAKOTHIKHAS,25.0,397392.0,89.16,4457.0659488559895,206907.0,190485.0,25479.0,221560649.0,45.69922869290747,66062.0,203726.0
228001,U78,Branch,1,38.18,SULTANPUR,UTTAR PRADESH,26.202094,82.062936,1.0,5.444721165165144,Sultanpur,5.958269573127498,PAKHRULI,18.0,362251.0,212.74,1702.7874400676883,182521.0,179730.0,25479.0,221560649.0,41.65808897319126,66062.0,203726.0
241001,U95,Branch,1,40.52,MATHURA,UTTAR PRADESH,27.47,77.69,1.0,0.9851944504626192,Mathura Heliport,2.0116305383632413,MATHURA JN,7.0,1091722.0,1475.44,739.9297836577563,585095.0,506627.0,25479.0,221560649.0,125.54569127480757,66062.0,203726.0
243502,U15,Branch,1,25.43,BAREILLY,UTTAR PRADESH,28.96857,79.68778,0.0,22.03231252900683,Pantnagar Airport (PGH/VIPT),17.413567355481096,PANTNAGAR,0.0,297559.0,105.71,2814.8614133005394,157426.0,140133.0,25479.0,221560649.0,34.21864755866462,66062.0,203726.0
244001,U14,Branch,1,33.92,MORADABAD,UTTAR PRADESH,28.83,78.77,1.0,3.642996578126717,Moradabad Circuit House Helipad,0.4469866249546756,MORADABAD,84.0,935478.0,210.29,4448.5139569166395,489626.0,445852.0,25479.0,221560649.0,107.57796598618916,66062.0,203726.0
244713,U27,Branch,1,17.2,UDAM SINGH NAGAR,UTTARAKHAND,29.67,79.84,1.0,39.50770444443943,Pithorgarh Airport (VIDF),53.10831019024106,KATHGODAM,41.0,351250.0,330.95,1061.3385707810849,184117.0,167133.0,3462.0,12330796.0,98.61711279628663,47.0,34.0
246701,U31,Branch,1,36.75,BIJNOR,UTTAR PRADESH,29.3732773,78.1355358,1.0,43.09468388315995,Muzaffarnagar Helipad,1.7546576934643734,BIJNOR,19.0,334725.0,388.66,861.2283229557968,176088.0,158637.0,25479.0,221560649.0,38.492657940354746,66062.0,203726.0
247001,U20,Branch,1,41.5,SAHARANPUR,UTTAR PRADESH,29.9603056,77.5458889,1.0,12.200970587143786,Sarsawa AFS (VISP),0.4005558401660287,SAHARANPUR,53.0,1189672.0,439.01,2709.897268854924,627816.0,561856.0,25479.0,221560649.0,136.8097314428791,66062.0,203726.0
247667,U22,Branch,1,25.875,HARIDWAR,UTTARAKHAND,29.8704444,77.8884722,1.0,44.9274274245525,Clement Town Heliport,2.501970341361548,ROORKEE,35.0,462068.0,314.28,1470.243095329006,246198.0,215870.0,3462.0,12330796.0,129.7304258378778,47.0,34.0
248001,U10,Branch,1,57.43,DEHRADUN,UTTARAKHAND,30.3353611,78.0144722,1.0,3.880851888264405,Indian Military Academy Helipad,2.9988053129602923,DEHRADUN,105.0,470716.0,71.53,6580.679435202013,247683.0,223033.0,3462.0,12330796.0,132.15844232602663,47.0,34.0
248011,U28,Branch,1,43.35,DEHRADUN,UTTARAKHAND,30.3553056,77.8543611,1.0,11.645027950485591,Indian Military Academy Helipad,17.803417226528204,DEHRADUN,0.0,22583.0,14.51,1556.3749138525154,11840.0,10743.0,3462.0,12330796.0,6.340413546700472,47.0,34.0
249201,U17,Branch,1,49.5,DEHRADUN,UTTARAKHAND,30.10536,78.298438,1.0,14.730597156163526,Dehradun Airport (DED/VIDN),1.0715015991282002,RISHIKESH,15.0,116183.0,46.48,2499.634251290878,60958.0,55225.0,3462.0,12330796.0,32.61959292814511,47.0,34.0
249402,U18,Branch,1,26.74,HARIDWAR,UTTARAKHAND,29.91,78.04,0.0,33.90612870355713,Dehradun Airport (DED/VIDN),6.120275651650656,IKKAR,1.0,268389.0,366.92,731.4646244412951,142335.0,126054.0,3462.0,12330796.0,75.35302003212121,47.0,34.0
250002,U13,Branch,1,44.1,MEERUT,UTTAR PRADESH,28.967333,77.658788,1.0,6.158424302123141,Meerut Helipad,1.9559450959268236,MEERUT CITY,39.0,596820.0,86.25,6919.652173913043,316473.0,280347.0,25479.0,221560649.0,68.6330214712451,66062.0,203726.0
262701,U140,Branch,1,13.78,KHERI,UTTAR PRADESH,27.96,80.64,1.0,14.782975817005122,Lakhimpur Police Helipad,3.8033298360907977,PHARADAHAN,20.0,545889.0,790.3,690.7364292040997,287563.0,258326.0,25479.0,221560649.0,62.77606557742119,66062.0,203726.0
263139,U12,Branch,1,22.05,NAINITAL,UTTARAKHAND,29.24841,80.10541,1.0,40.511514978873805,Pithorgarh Airport (VIDF),20.163508362402847,Tanakpur,28.0,376889.0,1522.86,247.48762197444285,195946.0,180943.0,3462.0,12330796.0,105.81553031937273,47.0,34.0
263153,U23,Branch,1,13.37,UDAM SINGH NAGAR,UTTARAKHAND,29.028629,79.3888,1.0,8.27149532729125,Pantnagar Airport (PGH/VIPT),6.664750651075816,RUDRAPUR CITY,19.0,162376.0,89.62,1811.8277170274491,85241.0,77135.0,3462.0,12330796.0,45.58876101753691,47.0,34.0
271002,U45,Branch,1,37.89,GONDA,UTTAR PRADESH,27.11416,82.01616,0.0,42.62892395496963,Faizabad Airport,3.9762346051562742,BARUACHAK,2.0,115105.0,109.54,1050.8033595033778,60302.0,54803.0,25479.0,221560649.0,13.23682841802833,66062.0,203726.0
272001,U142,Branch,1,22.97,BASTI,UTTAR PRADESH,26.786796,82.722857,1.0,40.73014717031258,Akbarpur Airport,5.679898152850272,BASTI,5.0,79570.0,15.75,5052.063492063492,40964.0,38606.0,25479.0,221560649.0,9.150379542352756,66062.0,203726.0
273016,U06,Branch,1,63.0,GORAKHPUR,UTTAR PRADESH,26.760555,83.05768,0.0,38.94726904499133,Gorakhpur AFS (GOP/VEGK),1.5753558903929654,KHALILABAD,0.0,300250.0,241.2,1244.8175787728028,155218.0,145032.0,25479.0,221560649.0,34.52810679390996,66062.0,203726.0
276001,U133,Branch,1,55.84,AZAMGARH,UTTAR PRADESH,26.052616,83.1828748,1.0,74.21938669994998,Varanasi Airport (VNS/VIBN),1.721870173856739,SIDHARI HALT,24.0,314685.0,126.29,2491.7649853511757,159577.0,155108.0,25479.0,221560649.0,36.18810087074623,66062.0,203726.0
281004,U25,Branch,1,40.0,MATHURA,UTTAR PRADESH,27.47,77.69,0.0,0.9851944504626192,Mathura Heliport,2.0116305383632413,MATHURA JN,7.0,176811.0,111.6,1584.3279569892477,94849.0,81962.0,25479.0,221560649.0,20.332886229268983,66062.0,203726.0
282007,U09,Branch,1,52.9,AGRA,UTTAR PRADESH,27.20455,77.9578487,1.0,5.219450442291843,Agra AFS (AGR/VIAG),2.907582021737332,BILOCHPURA AGRA,9.0,524154.0,235.85,2222.4040703837186,280006.0,244148.0,25479.0,221560649.0,60.276587138901185,66062.0,203726.0
284003,U24,Branch,1,33.08,JHANSI,UTTAR PRADESH,25.43889,78.59536,1.0,6.7824879324897065,Jhansi Air Base (VIJN),4.286863646370802,JHANSI JN,3.0,162627.0,70.98,2291.1665257819104,86268.0,76359.0,25479.0,221560649.0,18.701756614731707,66062.0,203726.0
285001,U110,Branch,1,9.96,JALAUN,UTTAR PRADESH,26.12251,79.4958,1.0,85.75786922172915,Kalyanpur Airport,13.478977996263907,ATA,4.0,328116.0,638.96,513.5157130336797,175494.0,152622.0,25479.0,221560649.0,37.73263709838655,66062.0,203726.0
301001,Q07,Branch,1,41.33,ALWAR,RAJASTHAN,27.444946,76.771163,1.0,86.06563434134337,Go Fly Zone,15.059156137420471,Jadoli Ka Bas,70.0,424883.0,880.39,482.6077079476142,224411.0,200472.0,15284.0,73402769.0,88.46957492843356,1733.0,1133.0
301019,Q11,Branch,1,19.43,ALWAR,RAJASTHAN,28.2119167,76.8533611,1.0,18.45136321383074,NSG Heliport,17.785044913639933,INCHHAPURI,10.0,137828.0,66.0,2088.3030303030305,73825.0,64003.0,15284.0,73402769.0,28.69868781108244,1733.0,1133.0
301705,Q44,Branch,1,36.91,ALWAR,RAJASTHAN,28.021874,76.378198,1.0,18.07182075863862,Bhilwara Airport,12.820803844426845,Kathuwas,0.0,67950.0,80.55,843.5754189944134,35720.0,32230.0,15284.0,73402769.0,14.148618834801724,1733.0,1133.0
302013,Q35,Branch,1,31.24,JAIPUR,RAJASTHAN,26.8820556,72.8154722,1.0,49.43950753298369,Phalodi Airport,8.738078099403461,BHIKAMKOR,12.0,140128.0,73.29,1911.9661618228952,73362.0,66766.0,15284.0,73402769.0,29.17759617488,1733.0,1133.0
302016,Q01,Branch,1,34.91,JAIPUR,RAJASTHAN,27.4096944,71.5566111,1.0,73.0273624790524,Phalodi AFS,42.364580212295365,SHRI BHADRIYA LATHI,34.0,148021.0,15.49,9555.907036797937,77687.0,70334.0,15284.0,73402769.0,30.82108474681657,1733.0,1133.0
302020,Q05,Hub,0,19.72,JAIPUR,RAJASTHAN,26.8750079,75.753425,1.0,6.836440673303521,Jaipur Heliport,3.900564872488068,DURGAPURA,33.0,220166.0,28.91,7615.565548253199,115841.0,104325.0,15284.0,73402769.0,45.84319079297949,1733.0,1133.0
302020,Q17,Branch,1,22.9,JAIPUR,RAJASTHAN,26.8750079,75.753425,1.0,6.836440673303521,Jaipur Heliport,3.900564872488068,DURGAPURA,33.0,220166.0,28.91,7615.565548253199,115841.0,104325.0,15284.0,73402769.0,45.84319079297949,1733.0,1133.0
303007,Q41,Branch,1,15.75,JAIPUR,RAJASTHAN,26.014,75.101,1.0,70.29883120637182,Kishangarh Airport,41.78399755592072,MOKHAMPURA,7.0,123065.0,238.1,516.8626627467451,64375.0,58690.0,15284.0,73402769.0,25.624720778585345,1733.0,1133.0
303103,Q43,Branch,1,15.35,JAIPUR,RAJASTHAN,23.633227,85.514877,1.0,18.09284769180156,Ghatotand Airstrip,1.8507647644005365,RAMGARH CANT,14.0,163226.0,293.75,555.6629787234043,85807.0,77419.0,15284.0,73402769.0,33.98708547357389,1733.0,1133.0
305001,Q09,Branch,1,56.99,AJMER,RAJASTHAN,26.445,74.6501944,1.0,23.08958553463348,Kishangarh Airport,1.8092584597674193,AJMER JN,38.0,135991.0,23.96,5675.751252086811,69952.0,66039.0,15284.0,73402769.0,28.31618578312761,1733.0,1133.0
306401,Q10,Branch,1,24.285,PALI,RAJASTHAN,25.787,73.11207,1.0,39.46351989882831,Salwas AFS,10.600396678327442,PIR DULHE SHAH HALT,11.0,266698.0,1004.56,265.487377558334,137174.0,129524.0,15284.0,73402769.0,55.532131655687266,1733.0,1133.0
311001,Q12,Branch,1,20.83,BHILWARA,RAJASTHAN,25.3384444,74.6332222,1.0,22.00784463173591,Ondwa Airport,0.6188418699973715,BHILWARA,33.0,341342.0,164.7,2072.50758955677,175843.0,165499.0,15284.0,73402769.0,71.07458205016762,1733.0,1133.0
313001,Q04,Branch,1,45.8,UDAIPUR,RAJASTHAN,24.62,73.75,1.0,14.771347615428276,Udaipur Airport (UDR/VAUD),4.731429128608531,Ranapratapnagar,54.0,411291.0,343.02,1199.029211124716,211518.0,199773.0,15284.0,73402769.0,85.63943471941774,1733.0,1133.0
321001,Q40,Branch,1,19.6,BHARATPUR,RAJASTHAN,27.172,77.564,1.0,34.53669389157412,Mathura Heliport,5.9714499596477415,NOH BACHHAMDI,24.0,356283.0,349.33,1019.9038158761056,189183.0,167100.0,15284.0,73402769.0,74.18561242560209,1733.0,1133.0
332001,Q16,Branch,1,92.35,SIKAR,RAJASTHAN,27.5830788,75.1102638,1.0,20.78501867047899,Tarpura Airfield,5.628093984569644,Sikar Junction,25.0,206727.0,118.02,1751.6268429079817,106356.0,100371.0,15284.0,73402769.0,43.044908401207586,1733.0,1133.0
334001,Q14,Branch,1,7.42,BIKANER,RAJASTHAN,27.8827,73.0995,1.0,23.417851675225936,Nal-Bikaner AFS (BKB/VIBK),6.988135685059898,Gajner,10.0,591347.0,4804.96,123.07011921014951,312424.0,278923.0,15284.0,73402769.0,123.13088008982332,1733.0,1133.0
335001,Q13,Branch,1,21.61,GANGANAGAR,RAJASTHAN,29.968766,73.822792,1.0,7.77253760040572,Sri Ganganagar Helipad,3.394214585419731,MOHANPURA,39.0,317859.0,535.74,593.3083212005823,169539.0,148320.0,15284.0,73402769.0,66.18492765579457,1733.0,1133.0
342005,Q02,Branch,1,28.69,JODHPUR,RAJASTHAN,26.225,73.0045556,1.0,5.289758296966894,Jodhpur AFS (JDH/VIJO),0.6477142593369559,BASNI,3.0,153547.0,51.49,2982.074189162944,80576.0,72971.0,15284.0,73402769.0,31.971714146097128,1733.0,1133.0
360002,A03,Branch,1,31.74,RAJKOT,GUJARAT,22.5200519,71.0108243,1.0,33.39328488358335,Rajkot Airport (RAJ/VARK),7.731042472405709,LUNSERIYA,32.0,34254.0,45.52,752.5043936731107,17997.0,16257.0,24258.0,65548142.0,12.676690851130456,2657.0,7894.0
380008,A11,Branch,1,43.76,AHMADABAD,GUJARAT,22.99508,72.603594,0.0,8.92632433957696,Ahmedabad International Airport (AMD/VAAH),0.8966545125757922,MANI NAGAR,73.0,180239.0,5.99,30089.98330550918,94965.0,85274.0,24258.0,65548142.0,66.70269405958143,2657.0,7894.0
380009,A24,Branch,1,54.21,AHMADABAD,GUJARAT,23.047151,72.552753,0.0,8.248620125249577,Ahmedabad International Airport (AMD/VAAH),2.801382242714115,GANDHIGRAM,73.0,168147.0,5.36,31370.70895522388,88594.0,79553.0,24258.0,65548142.0,62.22769710238316,2657.0,7894.0
380060,A36,Branch,1,55.71,AHMADABAD,GUJARAT,23.11646,72.51344,0.0,3.2573824254310706,Ahmedabad SGVP Helipad,3.911461829777782,CHANDLODIYA (B),6.0,259958.0,65.95,3941.743745261562,136756.0,123202.0,24258.0,65548142.0,96.20503299696884,2657.0,7894.0
382028,A38,Branch,1,37.5,GANDHINAGAR,GUJARAT,23.27,72.61,0.0,7.653849660792163,Gandhinagar Heliport,4.518205327397843,Gandhinagar Capital,0.0,20231.0,28.07,720.7338795867474,10542.0,9689.0,24258.0,65548142.0,7.487071075180133,2657.0,7894.0
382170,A50,Branch,1,12.48,AHMADABAD,GUJARAT,23.05,72.27,0.0,24.06335594989138,Vadsar AFS,1.9547980712409896,CHHARODI,0.0,109185.0,488.97,223.29590772440025,56805.0,52380.0,24258.0,65548142.0,40.40709086765572,2657.0,7894.0
382330,A01,Hub,0,15.805,AHMADABAD,GUJARAT,23.118941,72.714422,0.0,10.203462350743685,Ahmedabad International Airport (AMD/VAAH),1.91427801739903,MEDRA,12.0,249375.0,65.87,3785.86609989373,129763.0,119612.0,24258.0,65548142.0,92.28848546157114,2657.0,7894.0
384002,A18,Branch,1,12.78,MAHESANA,GUJARAT,23.588142,72.370791,0.0,1.4785665110044968,Mehsana Airfield,2.4343425085109343,MAHESANA JN,50.0,74376.0,20.24,3674.7035573122535,38899.0,35477.0,24258.0,65548142.0,27.525006093994243,2657.0,7894.0
388001,A44,Branch,1,38.91,ANAND,GUJARAT,22.559237585801156,72.96434941485613,1.0,36.5956621081843,Vadodara Airport (BDQ/VABO),0.2704349398832489,ANAND JN,75.0,92163.0,21.4,4306.682242990654,47755.0,44408.0,24258.0,65548142.0,34.10760375175852,2657.0,7894.0
390016,A02,Branch,1,22.98,VADODARA,GUJARAT,22.3035833,73.1976944,1.0,4.818198552991318,Vadodara Airport (BDQ/VABO),1.887507393516412,VADODARA JN,4.0,27627.0,2.93,9429.01023890785,14395.0,13232.0,24258.0,65548142.0,10.224176392368223,2657.0,7894.0
390022,A17,Branch,1,42.14,VADODARA,GUJARAT,22.3766,73.1125,1.0,12.583610149251712,Vadodara Airport (BDQ/VABO),2.140450860725587,KARACHIYA YARD,3.0,94019.0,57.78,1627.189338871582,48973.0,45046.0,24258.0,65548142.0,34.79447063503341,2657.0,7894.0
393002,A07,Branch,1,13.78,BHARUCH,GUJARAT,21.618527,73.023866,0.0,63.23930458442036,Surat Airport (STV/VASU),2.474527819720407,ANKLESHWAR JN,5.0,100514.0,20.38,4931.992149165849,53409.0,47105.0,24258.0,65548142.0,37.19813464735583,2657.0,7894.0
394325,A04,Hub,0,23.5,SURAT,GUJARAT,21.1927,72.97395,0.0,25.61203803078628,Surat Airport (STV/VASU),4.285396884124918,CHALTHAN,0.0,15687.0,55.9,280.62611806797855,8385.0,7302.0,24258.0,65548142.0,5.805431464403674,2657.0,7894.0
396195,A05,Branch,1,20.09,VALSAD,GUJARAT,20.348527,72.929985,0.0,12.631050506294716,Darman Heliport,3.600715397281112,VAPI,11.0,5025.0,4.31,1165.893271461717,2721.0,2304.0,24258.0,65548142.0,1.8596476769700048,2657.0,7894.0
400001,M02,Branch,1,233.33,MUMBAI,MAHARASHTRA,18.9260278,72.8298889,1.0,1.412040829335988,Shikra Naval Helibase,2.1804916316804728,MUMBAI CST,40.0,133622.0,7.16,18662.290502793297,69607.0,64015.0,40443.0,116869248.0,46.24034669924461,11176.0,66561.0
400013,M01,Branch,1,165.45,MUMBAI,MAHARASHTRA,18.99515805,72.82735048,1.0,1.5812137816170773,Mahalaxmi Race Course Helipad,0.2400933122519081,Mumbai Lower Parel,4.0,91148.0,2.19,41620.09132420091,47481.0,43667.0,40443.0,116869248.0,31.542074815095926,11176.0,66561.0
400043,M45,Branch,1,154.35,MUMBAI SUBURBAN,MAHARASHTRA,19.0531944,72.9253889,0.0,7.204854637298253,Mumbai - Chhatrapati Shivaji International Airport (BOM/VABB),4.016631225840554,LOKMANYA TILAK TERM,10.0,80625.0,6.51,12384.792626728113,41999.0,38626.0,40443.0,116869248.0,27.900554943247343,11176.0,66561.0
400050,M68,Branch,1,280.0,MUMBAI SUBURBAN,MAHARASHTRA,19.0565549681996,72.8337818071241,0.0,2.6964290244895617,Mumbai University Helipad,0.7391728157492251,BANDRA,31.0,183830.0,5.43,33854.51197053407,95762.0,88068.0,40443.0,116869248.0,63.61499553757718,11176.0,66561.0
400058,M78,Branch,1,176.4,MUMBAI SUBURBAN,MAHARASHTRA,19.1212865186983,72.8462373546915,0.0,2.871748286807062,Juhu Aerodrome (VAJJ),0.4337967986219119,ANDHERI,31.0,130819.0,3.69,35452.30352303523,68147.0,62672.0,40443.0,116869248.0,45.27035903405488,11176.0,66561.0
400068,M61,Branch,1,100.67,MUMBAI SUBURBAN,MAHARASHTRA,19.246878,72.862119,0.0,6.952326756612618,Abhinav Nagar AFS,0.4520209660545279,DAHISAR,27.0,227081.0,10.3,22046.699029126212,118330.0,108751.0,40443.0,116869248.0,78.58215090936497,11176.0,66561.0
400069,M48,Branch,1,161.04000000000002,MUMBAI SUBURBAN,MAHARASHTRA,19.1226389,72.8512778,0.0,3.265757815923729,Juhu Aerodrome (VAJJ),0.742781994592083,ANDHERI,19.0,106887.0,2.31,46271.42857142857,55680.0,51207.0,40443.0,116869248.0,36.98860919341245,11176.0,66561.0
400072,M10,Hub,0,146.45,MUMBAI SUBURBAN,MAHARASHTRA,19.118567,72.890134,0.0,4.042904637895123,Mumbai - Chhatrapati Shivaji International Airport (BOM/VABB),4.077851252326766,VIKHROLI,9.0,169669.0,4.45,38127.86516853933,88385.0,81284.0,40443.0,116869248.0,58.71453341601035,11176.0,66561.0
400075,M06,Branch,1,223.86,MUMBAI SUBURBAN,MAHARASHTRA,19.0843611,72.9180556,0.0,5.273538573641646,Mumbai - Chhatrapati Shivaji International Airport (BOM/VABB),1.0108268058521035,GHATKOPAR,0.0,85626.0,3.07,27891.205211726385,44605.0,41021.0,40443.0,116869248.0,29.631167969866635,11176.0,66561.0
400078,M50,Branch,1,64.52,MUMBAI SUBURBAN,MAHARASHTRA,19.1543333,72.9382222,0.0,7.197790073550166,Abhinav Nagar AFS,0.8893928361427847,NAHUR,45.0,270096.0,7.95,33974.339622641506,140705.0,129391.0,40443.0,116869248.0,93.46763768001657,11176.0,66561.0
400093,M04,Branch,1,206.62,MUMBAI SUBURBAN,MAHARASHTRA,19.1174661351108,72.865056201508,0.0,3.206944292512344,Mumbai - Chhatrapati Shivaji International Airport (BOM/VABB),1.91247726622911,ANDHERI,10.0,123253.0,3.23,38158.82352941176,64206.0,59047.0,40443.0,116869248.0,42.65211905017135,11176.0,66561.0
400602,M07,Branch,1,111.915,THANE,MAHARASHTRA,19.1993056,72.9793333,1.0,4.509502012913916,Thane West Helipad,1.5616630305400554,THANE,61.0,253823.0,3.94,64422.081218274114,135586.0,118237.0,40443.0,116869248.0,87.83631078895964,11176.0,66561.0
400701,M66,Branch,1,85.52,THANE,MAHARASHTRA,19.1243889,72.9976111,0.0,12.79627499143584,Thane West Helipad,6.31989131402629,NAHUR,3.0,303226.0,25.24,12013.708399366087,161976.0,141250.0,40443.0,116869248.0,104.93238664460304,11176.0,66561.0
400706,M08,Branch,1,96.32,THANE,MAHARASHTRA,19.012,73.0148611,0.0,12.987323953525792,Butcher Island Helipad,10.26911754311274,NAVADE ROAD,27.0,352524.0,23.52,14988.26530612245,188137.0,164387.0,40443.0,116869248.0,121.9921268938087,11176.0,66561.0
401208,M81,Hub,0,50.0,PALGHAR,MAHARASHTRA,19.3942114,72.8633635,0.0,20.610528814214607,Abhinav Nagar AFS,3.51857469341328,VASAI ROAD,4.0,616802.0,170.13,3625.4746370422617,326460.0,290342.0,40443.0,116869248.0,213.44642592378108,11176.0,66561.0
401208,M46,Branch,1,71.7,PALGHAR,MAHARASHTRA,19.3942114,72.8633635,0.0,20.610528814214607,Abhinav Nagar AFS,3.51857469341328,VASAI ROAD,4.0,616802.0,170.13,3625.4746370422617,326460.0,290342.0,40443.0,116869248.0,213.44642592378108,11176.0,66561.0
401501,M57,Branch,1,27.99,PALGHAR,MAHARASHTRA,19.7845874,72.7745592,0.0,64.63926854307778,Thane West Helipad,2.0389201860931725,BOISAR,5.0,165441.0,141.19,1171.7614561937814,86750.0,78691.0,40443.0,116869248.0,57.25141966345159,11176.0,66561.0
402107,M63,Branch,1,66.67,RAIGAD,MAHARASHTRA,18.7400098,73.1117003,1.0,24.074880723144993,ONGC Helipad,2.6676245029413885,PEN,16.0,204385.0,530.76,385.0798854472832,104163.0,100222.0,40443.0,116869248.0,70.72812306450368,11176.0,66561.0
410209,M39,Branch,1,80.82,RAIGAD,MAHARASHTRA,19.016,73.096,0.0,18.70786182498317,Kalyan airstrip,2.9130703787488383,KALAMBOLI GOODS,0.0,18427.0,0.61,30208.196721311477,9758.0,8669.0,40443.0,116869248.0,6.376725903122094,11176.0,66561.0
410501,P50,Branch,1,19.85,PUNE,MAHARASHTRA,18.765459,73.91684,1.0,20.34590671521079,Lohegaon AFS (PNQ/VAPO),19.302997501844775,CHINCHVAD,18.0,291615.0,395.43,737.4630149457553,154079.0,137536.0,40443.0,116869248.0,100.91436067938078,11176.0,66561.0
410507,P73,Branch,1,28.36,PUNE,MAHARASHTRA,18.7277378,73.6544332,0.0,5.950016159535344,Ozarde Maval Helipad,2.0122762590715317,TALEGAON,6.0,66270.0,100.85,657.1145265245415,34852.0,31418.0,40443.0,116869248.0,22.9329584631194,11176.0,66561.0
411005,P12,Branch,1,69.46,PUNE,MAHARASHTRA,18.5304167,73.8502778,1.0,9.311095838677558,Lohegaon AFS (PNQ/VAPO),0.1731583883022073,SHIVAJINAGAR,18.0,69499.0,5.12,13574.0234375,35768.0,33731.0,40443.0,116869248.0,24.05036487442787,11176.0,66561.0
411037,P15,Branch,1,40.26,PUNE,MAHARASHTRA,18.47825,73.86141667,1.0,8.590820402530852,Hadapsar Airfield,5.816812680882077,PUNE JN,22.0,227490.0,11.72,19410.409556313993,117078.0,110412.0,40443.0,116869248.0,78.72368674777474,11176.0,66561.0
411044,P04,Branch,1,26.59,PUNE,MAHARASHTRA,18.65325,73.76780556,1.0,17.810392168177504,Lohegaon AFS (PNQ/VAPO),0.6827797479035058,AKURDI,14.0,111135.0,11.22,9905.080213903742,59540.0,51595.0,40443.0,116869248.0,38.45864401386411,11176.0,66561.0
411058,P22,Branch,1,190.465,PUNE,MAHARASHTRA,18.4758056,73.7976667,1.0,1.9458015532305988,Pune Air Base,8.395398632415738,SHIVAJINAGAR,5.0,100360.0,16.26,6172.201722017219,52191.0,48169.0,40443.0,116869248.0,34.72991868656501,11176.0,66561.0
412207,P24,Branch,1,23.1,PUNE,MAHARASHTRA,18.15995,73.72288,1.0,35.32198636099448,Pune Air Base,38.186535793715336,KARANJADI,3.0,259155.0,357.62,724.6658464291706,136629.0,122526.0,40443.0,116869248.0,89.6814674892064,11176.0,66561.0
412209,P65,Branch,1,83.08,PUNE,MAHARASHTRA,18.754321,74.242892,0.0,39.064627897157955,Lohegaon AFS (PNQ/VAPO),29.543360192416134,YEVAT,2.0,63063.0,220.7,285.7408246488446,32913.0,30150.0,40443.0,116869248.0,21.823165226493117,11176.0,66561.0
412801,P57,Branch,1,15.32,SATARA,MAHARASHTRA,18.077561,73.92477,1.0,44.10457255835426,Satara Sainik School Helipad,27.566969173538254,VALHA,2.0,54064.0,126.67,426.8098207941897,27757.0,26307.0,40443.0,116869248.0,18.709030728083405,11176.0,66561.0
413512,P16,Branch,1,74.33,LATUR,MAHARASHTRA,18.400494,76.578184,1.0,12.035821067852275,Latur Airport (LTU/VALT),3.95195769655265,LATUR,15.0,178595.0,84.13,2122.845596101272,92942.0,85653.0,40443.0,116869248.0,61.80340601661098,11176.0,66561.0
416416,P10,Branch,1,18.74,SANGLI,MAHARASHTRA,16.81496,74.57944,1.0,35.11427836426257,Kolhapur Airport (KLH/VAKP),3.958886017160782,JAYASINGPUR,25.0,349109.0,171.28,2038.2356375525455,178588.0,170521.0,40443.0,116869248.0,120.81035455109628,11176.0,66561.0
421301,M47,Branch,1,121.32,THANE,MAHARASHTRA,19.5353,76.1449,1.0,86.240780710605,Aurangabad Airport (IXU/VAAU),8.412148045994519,PARTUR,54.0,460733.0,28.14,16372.885572139305,242300.0,218433.0,40443.0,116869248.0,159.43821867494174,11176.0,66561.0
421302,M33,Hub,0,17.64,THANE,MAHARASHTRA,19.2812627,73.0482832,1.0,7.902920640129582,Thane West Helipad,1.4409282189190833,BHIWANDI ROAD,9.0,1356093.0,742.47,1826.4616752192007,771604.0,584489.0,40443.0,116869248.0,469.2805861042248,11176.0,66561.0
422010,P19,Branch,1,26.78,NASHIK,MAHARASHTRA,19.9353728,73.7654287,1.0,5.417744472566025,Gandhinagar (ISK/VANR),8.108377410585852,NASIK ROAD,1.0,209177.0,112.46,1860.0124488707097,109722.0,99455.0,40443.0,116869248.0,72.38641093164217,11176.0,66561.0
424006,P38,Branch,1,17.37,DHULE,MAHARASHTRA,20.720254,74.733309,0.0,22.93692639511237,Dhulia Airport,13.33720750856393,Borvihir,0.0,91775.0,243.98,376.1578817935896,47502.0,44273.0,40443.0,116869248.0,31.759050293538294,11176.0,66561.0
431136,P56,Branch,1,31.65,AURANGABAD,MAHARASHTRA,20.4742,75.54375,0.0,52.39384433924301,Jalgaon Helipad,29.668148150276807,PACHORA JN,0.0,97107.0,28.45,3413.2513181019335,50593.0,46514.0,40443.0,116869248.0,33.604206993785056,11176.0,66561.0
440012,R32,Branch,1,74.14333333333333,NAGPUR,MAHARASHTRA,21.13286111,79.07775,0.0,5.4923924068789995,Nagpur International Airport (NAG/VANP),0.8307808386445521,AJNI,50.0,53946.0,3.44,15681.976744186048,27479.0,26467.0,40443.0,116869248.0,18.668196427515305,11176.0,66561.0
444004,R04,Branch,1,23.7,AKOLA,MAHARASHTRA,20.7061111,77.0025,0.0,5.888716222512221,Akola Airport (AKD/VAAK),1.9128681010599544,AKOLA JN,1.0,96730.0,58.14,1663.7426900584794,49628.0,47102.0,40443.0,116869248.0,33.47374486400391,11176.0,66561.0
444601,R12,Branch,1,20.66,AMRAVATI,MAHARASHTRA,20.9696111,77.7433333,1.0,17.57514321566719,Amravati Airstrip,4.644518852022029,Amravati,38.0,35376.0,3.74,9458.823529411764,18094.0,17282.0,40443.0,116869248.0,12.241984888958983,11176.0,66561.0
452001,I42,Branch,1,47.13,INDORE,MADHYA PRADESH,21.71825,75.87125,1.0,34.271761033361805,Khargon Govt. Airstrip,46.45929103817108,Attar,132.0,250456.0,13.72,18254.81049562682,130084.0,120372.0,13633.0,69540123.0,49.1006702418401,375.0,227.0
452010,I46,Hub,0,17.67,INDORE,MADHYA PRADESH,22.7560833,75.8752222,1.0,8.5036004640652,Indore International Airport (IDR/VAID),2.298181076894076,LAKSHMIBAI NAGAR,22.0,311700.0,22.99,13558.06872553284,161893.0,149807.0,13633.0,69540123.0,61.107256022541115,375.0,227.0
454774,I03,Branch,1,32.82,DHAR,MADHYA PRADESH,22.675433,88.373401,0.0,7.862901550604247,Calcutta International Airport (CCU/VECC),1.405980520258916,AGARPARA,0.0,67448.0,106.35,634.2078044193701,35170.0,32278.0,13633.0,69540123.0,13.222849548310403,375.0,227.0
455001,I20,Branch,1,27.01,DEWAS,MADHYA PRADESH,22.944,76.09,1.0,26.854433458451936,Bentayan Airport,5.4507536780825,DEWAS,35.0,451904.0,823.74,548.6002864981668,233103.0,218801.0,13633.0,69540123.0,88.59356248190703,375.0,227.0
460001,I39,Branch,1,29.78,BETUL,MADHYA PRADESH,21.850296,77.868171,1.0,26.699825919495908,Amla Airport,6.436486402445162,BETUL,1.0,169800.0,547.5,310.13698630136986,86562.0,83238.0,13633.0,69540123.0,33.288457082539246,375.0,227.0
462011,I43,Branch,1,75.0,BHOPAL,MADHYA PRADESH,23.23225,77.4288889,1.0,5.493389265570217,Bhopal Helipad,1.5698124986448223,HABIBGANJ,9.0,2718.0,0.15,18120.0,1416.0,1302.0,13633.0,69540123.0,0.5328505674342854,375.0,227.0
462023,I02,Branch,1,20.95,BHOPAL,MADHYA PRADESH,23.2454722,77.4456667,1.0,4.168264108971827,Bhopal Helipad,2.6889510411675515,HABIBGANJ,11.0,153138.0,13.24,11566.31419939577,79741.0,73397.0,13633.0,69540123.0,30.021953714404564,375.0,227.0
470002,I34,Branch,1,21.79,SAGAR,MADHYA PRADESH,23.844128,78.722743,0.0,7.20570210637904,Sagar Helipad,2.0831022992486625,SAUGOR,4.0,110164.0,83.96,1312.1010004764175,58269.0,51895.0,13633.0,69540123.0,21.5971118141393,375.0,227.0
474002,U07,Branch,1,38.835,GWALIOR,MADHYA PRADESH,26.230832,78.321936,1.0,11.677675016301434,Maharajpur AFS (GWL/VIGR),12.651861814014357,BIRLANAGAR,12.0,140272.0,12.02,11669.883527454243,75262.0,65010.0,13633.0,69540123.0,27.499637525806502,375.0,227.0
482002,I08,Branch,1,18.9,JABALPUR,MADHYA PRADESH,23.186168,79.913059,0.0,14.232778454175552,Jabalpur Airport (JLR/VAJB),2.183460283760911,KACHHPURA,32.0,414272.0,100.2,4134.451097804391,215646.0,198626.0,13633.0,69540123.0,81.21599347760716,375.0,227.0
484001,I30,Branch,1,34.05,SHAHDOL,MADHYA PRADESH,23.18,81.39,1.0,13.141425541556496,Burhar Airport,8.41639014177054,SINGHPUR,5.0,184845.0,1046.98,176.5506504422243,94146.0,90699.0,13633.0,69540123.0,36.23795553252042,375.0,227.0
486001,I19,Branch,1,24.0,REWA,MADHYA PRADESH,24.5373,81.3042,1.0,2.15932195227493,Rewa Helipad,5.420325382913193,REWA,9.0,110621.0,49.23,2247.0241722526916,57831.0,52790.0,13633.0,69540123.0,21.686704422423873,375.0,227.0
490001,R08,Branch,1,38.88,DURG,CHHATTISGARH,21.11522,81.2251,1.0,25.539759904191904,Bhilai Airport,9.926090374053084,RASMARA,8.0,242382.0,51.98,4662.9857637552905,123941.0,118441.0,5059.0,27624770.0,44.38808134873159,41.0,21.0
492001,R06,Hub,0,15.825,RAIPUR,CHHATTISGARH,21.24125,81.61975,1.0,2.2061685380063447,Raipur University Helipad,1.9612384180663551,RAIPUR JN,133.0,204584.0,37.23,5495.1383293043245,105102.0,99482.0,5059.0,27624770.0,37.46602979861914,41.0,21.0
495004,R07,Branch,1,23.53,BILASPUR,CHHATTISGARH,22.0668,82.15724,0.0,9.935631221673626,Bilaspur Airport (PAB/VABI),1.487326186422518,BILASPUR JN,1.0,204528.0,72.22,2832.013292716699,104447.0,100081.0,5059.0,27624770.0,37.45577436481824,41.0,21.0
495450,R10,Branch,1,128.57,KORBA,CHHATTISGARH,22.349639,82.541099,1.0,19.69097704478648,Korba Airport,10.7540233360887,Gevra Road,1.0,52238.0,57.95,901.432269197584,26837.0,25401.0,5059.0,27624770.0,9.566488408772273,41.0,21.0
496001,R19,Branch,1,65.11,RAIGARH,CHHATTISGARH,21.8883335,83.3355198,1.0,5.472533714711022,Raigarh Airport (JSPL),4.310073098453197,KIRODIMALNAGAR,12.0,265184.0,769.26,344.7261004081845,135443.0,129741.0,5059.0,27624770.0,48.56387423316104,41.0,21.0
497001,R29,Branch,1,23.93,BALRAMPUR,CHHATTISGARH,23.250839,83.317242,1.0,101.22293862581104,Muirpur Airport,21.67183347245908,AMBIKAPUR,8.0,399981.0,1174.3,340.61227965596527,202839.0,197142.0,5059.0,27624770.0,73.24961905565186,41.0,21.0
500008,H71,Branch,1,52.89,HYDERABAD,TELANGANA,17.65252778,78.68886111,1.0,20.572717352745883,Hakimpet AFS (VOHK),22.202274641115732,GHATKESAR,13.0,202553.0,17.65,11476.090651558075,103940.0,98613.0,15020.0,35102892.0,86.6693849612163,771.0,350.0
500009,H74,Branch,1,44.73,HYDERABAD,TELANGANA,17.468715755952623,78.48985845325413,1.0,2.9309116465703307,Begumpet AFS (BPM/VOHY),3.941180826123188,SANJEEVAIAH PARK,9.0,62135.0,5.64,11016.843971631206,32257.0,29878.0,15020.0,35102892.0,26.586632805069165,771.0,350.0
500011,H07,Branch,1,57.44,HYDERABAD,TELANGANA,17.4662565,78.47262,1.0,1.5568827032460837,Begumpet AFS (BPM/VOHY),2.6225791964875924,FATEHNAGAR,6.0,82073.0,7.35,11166.39455782313,42523.0,39550.0,15020.0,35102892.0,35.1178033992185,771.0,350.0
500014,H66,Hub,0,30.35,HYDERABAD,TELANGANA,17.539,78.51830556,0.0,1.7574064918494978,Hakimpet AFS (VOHK),0.6790904243592502,BOLARUM,1.0,5062.0,8.23,615.0668286755771,2594.0,2468.0,15020.0,35102892.0,2.165953733954456,771.0,350.0
500034,H08,Branch,1,77.18,HYDERABAD,TELANGANA,17.420381,78.448905,1.0,4.143555023618873,Begumpet AFS (BPM/VOHY),1.515790424274737,KHAIRATABAD DCN,32.0,119631.0,6.63,18043.891402714933,61172.0,58459.0,15020.0,35102892.0,51.18830721981539,771.0,350.0
500047,H48,Branch,1,47.87,MEDCHAL MALKAJGIRI,TELANGANA,17.448106246739965,78.53470292623659,0.0,5.973993995816032,Hyderabad Defence College Heliport,0.5416078925707142,MALKAJGIRI,6.0,96544.0,8.5,11358.117647058823,48861.0,47683.0,15020.0,35102892.0,41.3097268452981,771.0,350.0
500049,H80,Branch,1,33.67,MEDCHAL MALKAJGIRI,TELANGANA,17.4739167,78.5118889,0.0,3.32469160311384,Hyderabad Defence College Heliport,1.778794555528043,RAMAKRISHNAPURAM GATE,6.0,101801.0,14.55,6996.632302405498,52363.0,49438.0,15020.0,35102892.0,43.559118149011766,771.0,350.0
500068,H79,Branch,1,19.1,MEDCHAL MALKAJGIRI,TELANGANA,17.34795,78.57159,1.0,4.804074106413387,Nadirgul Runway,8.57546548951733,YAKUTPURA KACHEGUDA,2.0,91557.0,22.94,3991.150828247602,46878.0,44679.0,15020.0,35102892.0,39.17586448432796,771.0,350.0
500079,H11,Branch,1,21.0,RANGA REDDY,TELANGANA,17.32468,78.55438,1.0,2.168844880931423,Nadirgul Runway,7.699516687959064,YAKUTPURA KACHEGUDA,9.0,91978.0,7.17,12828.172942817297,47064.0,44914.0,15020.0,35102892.0,39.35600405801323,771.0,350.0
500081,H70,Branch,1,87.38499999999999,HYDERABAD,TELANGANA,17.441637,78.391092,1.0,8.215176053800414,Begumpet AFS (BPM/VOHY),2.6436863472402203,BORABANDA,3.0,161824.0,12.35,13103.157894736842,83780.0,78044.0,15020.0,35102892.0,69.24205789084273,771.0,350.0
501218,H13,Hub,0,14.38,RANGA REDDY,TELANGANA,17.288625,78.366574,1.0,9.67387258989132,Hyderabad International Airport (HYD/VOHS),4.015024319242029,UMDANAGAR,5.0,100970.0,154.43,653.8237389108334,51933.0,49037.0,15020.0,35102892.0,43.2035457363456,771.0,350.0
507003,H91,Branch,1,121.645,KHAMMAM,TELANGANA,17.6904,80.9139,0.0,115.67115564967872,Tadepallegudem Airfield,16.116258785160774,Panduranga Pura,2.0,66046.0,208.01,317.5135810778328,33035.0,33011.0,15020.0,35102892.0,28.260090934957724,771.0,350.0
508213,H92,Branch,1,18.72,SURYAPET,TELANGANA,17.1380158,79.6242024,1.0,73.96558849317232,Nagarjuna Sagar Airport (VONS),25.897662161642604,TIPPARTHI,6.0,81948.0,79.95,1024.9906191369605,40664.0,41284.0,15020.0,35102892.0,35.06431777757798,771.0,350.0
515201,V24,Branch,1,17.64,Sri Sathya Sai,ANDHRA PRADESH,13.826869,77.494508,1.0,72.54097782244637,Bengaluru International Airport (BLR/VOBL),1.0664787736543522,HINDUPUR,6.0,115202.0,72.58,1587.24166437035,58347.0,56855.0,14397.0,40194656.0,41.26327624249353,288.0,277.0
516001,V13,Branch,1,35.0,Y.S.R.,ANDHRA PRADESH,14.4823333,78.8223889,1.0,6.279618700938503,Cuddapah Airport (CDP/VOCP),3.4850404130447936,CUDDAPAH,21.0,60340.0,7.8,7735.8974358974365,30299.0,30041.0,14397.0,40194656.0,21.612698464193844,288.0,277.0
517001,V32,Branch,1,33.28,CHITTOOR,ANDHRA PRADESH,13.21641667,79.09008333,1.0,34.29822305486045,Vellore Airport (VOVR),1.4759333050125951,CHITTOOR,9.0,63555.0,14.92,4259.7184986595175,31750.0,31805.0,14397.0,40194656.0,22.764253412194893,288.0,277.0
518001,V04,Branch,1,19.95,KURNOOL,ANDHRA PRADESH,15.833006,78.047822,1.0,18.9705564011338,Kurnool Airport,1.6244208874758914,KURNOOL TOWN,10.0,41781.0,4.0,10445.25,20873.0,20908.0,14397.0,40194656.0,14.96519977680615,288.0,277.0
521107,V06,Hub,0,25.16,KRISHNA,ANDHRA PRADESH,16.536196,80.727569,0.0,7.407810522545689,Vijayawada Airport (VGA/VOBZ),1.2697320683653417,MUSTABADA,0.0,42513.0,52.89,803.8003403289847,21233.0,21280.0,14397.0,40194656.0,15.227388959368133,288.0,277.0
522003,V08,Branch,1,19.27,GUNTUR,ANDHRA PRADESH,16.285,80.4298611,1.0,47.71294457251659,Vijayawada Airport (VGA/VOBZ),2.179779669859855,GUNTUR JN,1.0,84968.0,6.65,12777.142857142857,42477.0,42491.0,14397.0,40194656.0,30.434003366019603,288.0,277.0
523001,V10,Branch,1,18.19,PRAKASAM,ANDHRA PRADESH,15.47865,80.0537,1.0,62.64302172353135,Bapatla Helipad,2.1949232277374877,ONGOLE,17.0,107469.0,34.45,3119.564586357039,53912.0,53557.0,14397.0,40194656.0,38.49345527425338,288.0,277.0
524004,V09,Branch,1,28.8,SPSR NELLORE,ANDHRA PRADESH,14.459344,79.912624,0.0,100.20118357792236,Tirupati Airport (TIR/VOTP),7.756610822833908,VEDAYAPALEM,0.0,192451.0,201.61,954.5707058181636,97704.0,94747.0,14397.0,40194656.0,68.93247318748045,288.0,277.0
530007,V02,Hub,0,49.29,VISAKHAPATANAM,ANDHRA PRADESH,17.74724,83.262643,0.0,4.969997639842859,Visakhapatnam Airport (VTZ/VEVZ),1.6138666727735618,MARRIPALEM,0.0,41854.0,4.67,8962.312633832977,21107.0,20747.0,14397.0,40194656.0,14.991347058673671,288.0,277.0
530026,V16,Branch,1,33.14,VISAKHAPATANAM,ANDHRA PRADESH,17.6907222,83.2038056,0.0,4.036384410226767,Visakhapatnam Airport (VTZ/VEVZ),5.672491681071548,DUVVADA,8.0,96231.0,8.07,11924.53531598513,49025.0,47206.0,14397.0,40194656.0,34.46820659442887,288.0,277.0
532001,V12,Branch,1,19.69,SRIKAKULAM,ANDHRA PRADESH,18.296229,83.893679,1.0,70.11501990364549,INS Kalinga Heliport,9.037057219608524,DUSI,19.0,119076.0,25.96,4586.902927580893,59571.0,59505.0,14397.0,40194656.0,42.65087309118904,288.0,277.0
533003,V15,Branch,1,19.52,EAST GODAVARI,ANDHRA PRADESH,16.968486,82.236258,1.0,47.09110211811015,Rajahmundry Airport (RJA/VORY),0.3909442987133436,KAKINADA TOWN,8.0,214258.0,30.04,7132.423435419441,105570.0,108688.0,14397.0,40194656.0,76.74334682700108,288.0,277.0
533296,V05,Branch,1,22.05,EAST GODAVARI,ANDHRA PRADESH,17.03738,81.93148,0.0,14.442109055440538,Rajahmundry Airport (RJA/VORY),10.817548087874265,BALABHADRAPURAM,0.0,27340.0,86.33,316.6917641607784,13719.0,13621.0,14397.0,40194656.0,9.79269433230129,288.0,277.0
535006,V11,Branch,1,24.34,VIZIANAGARAM,ANDHRA PRADESH,18.118605,83.477844,0.0,29.540516158227422,INS Kalinga Heliport,7.535576292009758,NELLIMARIA,0.0,37888.0,51.31,738.413564607289,18908.0,18980.0,14397.0,40194656.0,13.57079747118622,288.0,277.0
560043,B11,Branch,1,44.1,BENGALURU URBAN,KARNATAKA,13.0137778,77.6523889,0.0,6.433970250061293,HAL Heliport,1.1890270732060544,CHANNASANDRA,26.0,285910.0,14.37,19896.31176061239,150065.0,135845.0,25007.0,60683975.0,117.81943041799752,1369.0,787.0
560048,B35,Branch,1,31.43,BENGALURU URBAN,KARNATAKA,12.9954444,77.6990833,0.0,4.430013198364049,HAL Heliport,2.7742763149319787,KRISHNARAJAPURAM,2.0,150942.0,13.28,11366.114457831323,78995.0,71947.0,25007.0,60683975.0,62.201043916454054,1369.0,787.0
560058,B08,Branch,1,41.11,BENGALURU URBAN,KARNATAKA,13.010654,77.523283,1.0,6.363515681797165,Bangalore Dollars Helipad,3.31151470803362,YESVANTPUR JN,11.0,318772.0,19.35,16474.005167958654,168218.0,150554.0,25007.0,60683975.0,131.36139160297262,1369.0,787.0
560064,B10,Hub,0,15.62,BENGALURU URBAN,KARNATAKA,13.0852778,77.5688056,0.0,2.7304669577003167,Jalahalli Helipad,2.5579976252146124,KODIGEHALLI,24.0,401793.0,102.56,3917.6384555382215,209088.0,192705.0,25007.0,60683975.0,165.5731608056328,1369.0,787.0
560064,B26,Branch,1,32.08,BENGALURU URBAN,KARNATAKA,13.0852778,77.5688056,0.0,2.7304669577003167,Jalahalli Helipad,2.5579976252146124,KODIGEHALLI,24.0,401793.0,102.56,3917.6384555382215,209088.0,192705.0,25007.0,60683975.0,165.5731608056328,1369.0,787.0
560068,B06,Branch,1,21.43,BENGALURU URBAN,KARNATAKA,12.8886891,77.657046,1.0,6.923744408857285,Bangalore HAL Airport (VOBG),5.710331797067743,Carmelaram,25.0,284248.0,16.05,17710.155763239876,154208.0,130040.0,25007.0,60683975.0,117.13454393849446,1369.0,787.0
560071,B58,Branch,1,83.2,BENGALURU URBAN,KARNATAKA,12.1669167,77.1099722,0.0,49.78614897744211,Mysore Airport (MYQ/VOMY),32.199567326784525,CHAMARAJANAGAR,3.0,31359.0,1.55,20231.612903225807,16552.0,14807.0,25007.0,60683975.0,12.92259633618266,1369.0,787.0
560078,B59,Branch,1,62.57,BENGALURU URBAN,KARNATAKA,12.9001946,77.5708583,1.0,11.914710616562305,Bangalore HAL Airport (VOBG),7.092786781673068,NAYANDAHALLI,23.0,292367.0,12.22,23925.286415711947,155611.0,136756.0,25007.0,60683975.0,120.48026796201138,1369.0,787.0
562107,B113,Hub,0,19.18,BENGALURU URBAN,KARNATAKA,12.77725,77.7729167,1.0,12.798382673702706,Hosur Airport (HSR/VO95),7.815090741311241,Heelalige,2.0,114489.0,90.73,1261.8648738013887,62302.0,52187.0,25007.0,60683975.0,47.17928288316644,1369.0,787.0
562114,B68,Branch,1,26.28,BENGALURU RURAL,KARNATAKA,13.02,77.88,1.0,22.860044197822752,HAL Heliport,6.532634915035533,DEVANGONTHI,8.0,140423.0,252.94,555.1632798292085,72741.0,67682.0,25007.0,60683975.0,57.86631414636235,1369.0,787.0
562123,B36,Hub,0,32.806666666666665,BENGALURU RURAL,KARNATAKA,13.11,77.31,1.0,19.780289677093545,Chimney Hills AFS,12.038172174290452,GOLHALLI,10.0,254048.0,262.47,967.9125233360002,129676.0,124372.0,25007.0,60683975.0,104.6895549607619,1369.0,787.0
570022,B02,Branch,1,46.73,MYSURU,KARNATAKA,12.3141667,76.6565556,1.0,9.149333573862933,Mysore Airport (MYQ/VOMY),1.2625923231988443,MYSORE JN,1.0,10756.0,1.48,7267.567567567568,5415.0,5341.0,25007.0,60683975.0,4.432394087565951,1369.0,787.0
572101,B43,Branch,1,27.81,TUMAKURU,KARNATAKA,13.3168611,77.1086389,1.0,32.644275112509085,Tumkur Heliport,1.9192879950781456,TUMKUR,13.0,32943.0,9.64,3417.323651452282,16861.0,16082.0,25007.0,60683975.0,13.575340128922011,1369.0,787.0
573201,B18,Branch,1,20.35,HASSAN,KARNATAKA,12.9956667,76.1140556,1.0,83.43264730829499,Tumkur Heliport,0.9090825342520028,Hassan Junction,24.0,86556.0,71.28,1214.3097643097642,43058.0,43498.0,25007.0,60683975.0,35.668492250219266,1369.0,787.0
577003,B50,Branch,1,10.94,DAVANGERE,KARNATAKA,14.446827,75.944872,0.0,19.560453929961984,Harihar Airport,3.3717118223151017,DAVANGERE,0.0,41661.0,13.2,3156.136363636364,21061.0,20600.0,25007.0,60683975.0,17.167903503354882,1369.0,787.0
577101,B64,Branch,1,15.95,CHIKKAMAGALURU,KARNATAKA,13.3421057,75.6344904,1.0,90.93074334416868,Mangalore International Airport (IXE/VOML),17.226570774513114,Chikkamanglur,9.0,117829.0,337.52,349.10227542071584,58620.0,59209.0,25007.0,60683975.0,48.55564921381633,1369.0,787.0
577201,B38,Branch,1,23.17,SHIVAMOGGA,KARNATAKA,13.9384722,75.5755833,1.0,70.15014834686656,Harihar Airport,0.9636940471380614,Shimoga Town,35.0,80081.0,17.15,4669.446064139942,40293.0,39788.0,25007.0,60683975.0,33.00023716310607,1369.0,787.0
577501,B13,Branch,1,29.62,CHITRADURGA,KARNATAKA,14.2215833,76.3974167,1.0,74.35255487843003,Harihar Airport,1.592050153062476,Chitradurg,14.0,80898.0,64.46,1255.0108594477197,40949.0,39949.0,25007.0,60683975.0,33.336911202669235,1369.0,787.0
580021,B03,Branch,1,33.28,DHARWAD,KARNATAKA,15.358532,75.1270112,0.0,4.529022717887252,Hubli Airport (HBX/VAHB),2.092203452128334,UNKAL,16.0,3165.0,2.12,1492.9245283018868,1649.0,1516.0,25007.0,60683975.0,1.3042513282954848,1369.0,787.0
581402,B39,Branch,1,53.68,UTTARA KANNADA,KARNATAKA,14.739777,74.879436,1.0,72.58879556719928,Hubli Airport (HBX/VAHB),57.44197853982918,HAVERI,3.0,75979.0,284.19,267.352827333826,38418.0,37561.0,25007.0,60683975.0,31.309861507918686,1369.0,787.0
583103,B47,Branch,1,36.47,BALLARI,KARNATAKA,15.3302138,76.9938446,0.0,22.27256020421769,Bellary Airport (BEP/VOBI),19.73899254663324,HADDINAGUNDU,9.0,108930.0,149.92,726.5875133404483,54787.0,54143.0,25007.0,60683975.0,44.88849832266261,1369.0,787.0
585104,B05,Branch,1,11.55,KALABURAGI,KARNATAKA,17.4,76.8,1.0,19.95334216708064,Gulbarga Airport,7.282616290970554,BABLAD,5.0,189338.0,329.44,574.726809130646,97017.0,92321.0,25007.0,60683975.0,78.0234875187395,1369.0,787.0
587101,B41,Branch,1,27.73,BAGALKOT,KARNATAKA,16.18125,75.6991667,0.0,72.14496129009535,Bijapur Helipad,0.2961944507450006,BAGALKOT,18.0,43965.0,26.61,1652.1984216459978,22085.0,21880.0,25007.0,60683975.0,18.117349020066666,1369.0,787.0
590001,B16,Branch,1,55.28,BELAGAVI,KARNATAKA,15.8577222,74.5119722,0.0,11.37461870685116,Belgaum Airport (IXG/VABM),0.9773700064018398,BELGAUM,32.0,29176.0,12.0,2431.3333333333335,14832.0,14344.0,25007.0,60683975.0,12.023013192527351,1369.0,787.0
600001,C15,Branch,1,67.49,CHENNAI,TAMIL NADU,13.0929722,80.2915,0.0,2.2051822111178874,INS Adyar,0.2928916600566449,CHENNAI BEACH,19.0,135847.0,5.97,22754.94137353434,70766.0,65081.0,27216.0,79650460.0,46.4179610764332,1517.0,1581.0
600018,C36,Branch,1,66.55,CHENNAI,TAMIL NADU,13.2398508,80.1559328,0.0,3.3151609618959603,Cholavaram Airstrip,10.81400361991703,ANUPPAMBATTU,16.0,105756.0,2.76,38317.39130434783,55091.0,50665.0,27216.0,79650460.0,36.13607876213144,1517.0,1581.0
600032,C13,Branch,1,85.0,CHENNAI,TAMIL NADU,13.0515278,80.2115833,1.0,7.18672344251139,Chennai International Airport (MAA/VOMM),2.1394156597293024,KODAMBAKAM,10.0,133547.0,6.68,19992.065868263475,69430.0,64117.0,27216.0,79650460.0,45.63206731009463,1517.0,1581.0
600045,C30,Branch,1,57.88,CHENGALPATTU,TAMIL NADU,12.904,80.078,1.0,4.771700446266603,Tambaram AFS (VOTX),1.575018591630392,VANDALUR,17.0,88488.0,8.63,10253.53418308227,44434.0,44054.0,27216.0,79650460.0,30.235725041638176,1517.0,1581.0
600050,C37,Branch,1,101.05,CHENNAI,TAMIL NADU,13.0988611,80.1838333,1.0,11.619260646551384,Chennai International Airport (MAA/VOMM),1.6107266645377083,KORATTUR,0.0,68994.0,2.62,26333.58778625954,35332.0,33662.0,27216.0,79650460.0,23.574762832505925,1517.0,1581.0
600077,C20,Hub,0,20.76,THIRUVALLUR,TAMIL NADU,13.048,80.108,1.0,9.860873180042692,Chennai International Airport (MAA/VOMM),7.830957861953282,ANNANUR,0.0,130604.0,20.64,6327.7131782945735,65960.0,64644.0,27216.0,79650460.0,44.626464982123146,1517.0,1581.0
600100,C47,Branch,1,31.625,CHENGALPATTU,TAMIL NADU,12.905914,80.201454,0.0,8.62343031318894,Tambaram AFS (VOTX),7.06981005802887,Velachery,3.0,178447.0,23.99,7438.390996248438,90330.0,88117.0,27216.0,79650460.0,60.97408040079116,1517.0,1581.0
600110,C48,Branch,1,32.18,THIRUVALLUR,TAMIL NADU,13.2277222,80.3966944,0.0,20.70324582958427,INS Adyar,8.141168590754976,ENNORE,0.0,55846.0,5.41,10322.735674676524,28575.0,27271.0,27216.0,79650460.0,19.08218403258437,1517.0,1581.0
600116,C38,Branch,1,37.89,CHENNAI,TAMIL NADU,13.0395556,80.1733333,0.0,5.07940816700563,Chennai International Airport (MAA/VOMM),5.481391295586209,GUINDY,4.0,185075.0,18.14,10202.590959206174,93565.0,91510.0,27216.0,79650460.0,63.2388212196138,1517.0,1581.0
601201,C73,Branch,1,31.39,THIRUVALLUR,TAMIL NADU,13.465,80.037,1.0,30.95488716745777,Cholavaram Airstrip,8.542411694908473,ARAMBAKKAM,0.0,192224.0,315.13,609.9831815441247,96576.0,95648.0,27216.0,79650460.0,65.68158406115923,1517.0,1581.0
602105,C53,Branch,1,38.59,KANCHIPURAM,TAMIL NADU,12.967475,79.94181,1.0,20.63577695151847,Tambaram AFS (VOTX),16.645633943530527,EGATTUR HALT,7.0,323781.0,248.87,1301.004540523165,163814.0,159967.0,27216.0,79650460.0,110.63368241690004,1517.0,1581.0
603002,C57,Branch,1,57.88,CHENGALPATTU,TAMIL NADU,12.7074,79.9393,0.0,29.758957609176186,Tambaram AFS (VOTX),3.397628668388092,REDIPALAYAM,1.0,24668.0,27.48,897.6710334788937,12442.0,12226.0,27216.0,79650460.0,8.428881490452158,1517.0,1581.0
603203,C50,Branch,1,74.42,KANCHIPURAM,TAMIL NADU,12.6840022,79.9833413,0.0,29.011997550701157,Tambaram AFS (VOTX),1.0050204664590536,CHENGALPATTU,1.0,24351.0,37.08,656.7152103559871,12338.0,12013.0,27216.0,79650460.0,8.32056482787419,1517.0,1581.0
605009,C02,Branch,1,17.22,PONDICHERRY,PUDUCHERRY,11.94,79.77,0.0,5.639534457941866,Pondicherry Airport (PNY/VOTY),2.676091110014403,Villianur,2.0,165047.0,12.21,13517.362817362817,81829.0,83218.0,479.0,1456577.0,54.27623325097128,37.0,20.0
605602,C22,Branch,1,29.28,VILLUPURAM,TAMIL NADU,11.9453889,79.49525,1.0,34.26030520066269,Ulundurpet Airstrip,0.5922683692034039,VILLUPURAM JN,15.0,84411.0,30.51,2766.6666666666665,42281.0,42130.0,27216.0,79650460.0,28.842642917567584,1517.0,1581.0
613501,E23,Branch,1,25.85,THANJAVUR,TAMIL NADU,10.79,79.22,0.0,12.55970154557473,Thanjavur Helipad,2.852982810089219,KUDIKADU,0.0,21686.0,32.85,660.152207001522,10643.0,11043.0,27216.0,79650460.0,7.409953137747101,1517.0,1581.0
620001,E06,Branch,1,18.19,TIRUCHIRAPPALLI,TAMIL NADU,10.794108,78.684352,1.0,4.695794397781776,Tiruchirapalli international Airport (TRZ/VOTR),0.1096500339077796,TIRUCHIRAPPALLI,26.0,156984.0,10.43,15051.198465963567,77516.0,79468.0,27216.0,79650460.0,53.640324789084715,1517.0,1581.0
624002,E07,Branch,1,13.7,DINDIGUL,TAMIL NADU,10.4,77.9,1.0,66.34786198703426,Madurai Airport (IXM/VOMD),2.474874871447895,Akkaraippatti,0.0,82567.0,73.42,1124.5845818578043,41161.0,41406.0,27216.0,79650460.0,28.212561132729174,1517.0,1581.0
625531,E24,Branch,1,14.85,THENI,TAMIL NADU,9.96,77.85,1.0,30.092684826656324,Madurai Airport (IXM/VOMD),14.293399338189042,KARUPPATTI,15.0,84888.0,51.29,1655.0594657828035,42689.0,42199.0,27216.0,79650460.0,29.005630450847367,1517.0,1581.0
626123,E20,Branch,1,42.35,VIRUDHUNAGAR,TAMIL NADU,9.45325,77.7941389,1.0,33.42188673903233,Kovilpatti Airport,1.241893875942821,SIVAKASI,16.0,47318.0,15.1,3133.6423841059604,23493.0,23825.0,27216.0,79650460.0,16.168226624177688,1517.0,1581.0
627003,E09,Branch,1,41.91,TIRUNELVELI,TAMIL NADU,8.7313881,77.7182023,0.0,28.962473487257597,Kayathar Airstrip,1.2522436896814764,TIRUNELVELI,7.0,6275.0,5.96,1052.8523489932886,3099.0,3176.0,27216.0,79650460.0,2.144123210336764,1517.0,1581.0
628002,E10,Branch,1,32.54,TUTICORIN,TAMIL NADU,8.841142,78.152769,0.0,19.107861614324136,Tuticorin Southwest Airport,3.723049441952589,TUTI MELUR,9.0,133552.0,65.73,2031.8271717632736,66819.0,66733.0,27216.0,79650460.0,45.633775774804064,1517.0,1581.0
629001,E11,Branch,1,25.78,KANNIYAKUMARI,TAMIL NADU,8.1957222,77.4266389,1.0,64.38629229265689,Trivandrum International Airport (TRV/VOTV),0.901333785982628,NAGERCOIL TOWN,40.0,79978.0,20.77,3850.6499759268177,39484.0,40494.0,27216.0,79650460.0,27.327918106185457,1517.0,1581.0
631501,C59,Branch,1,22.58,KANCHIPURAM,TAMIL NADU,12.826944,79.685672,1.0,27.166675442744417,INS Rajali (VOAR),3.0945322253278595,KANCHIPURAM,8.0,161990.0,32.26,5021.388716677,80947.0,81043.0,27216.0,79650460.0,55.35083965616771,1517.0,1581.0
632004,C08,Branch,1,77.83,VELLORE,TAMIL NADU,12.9245278,79.1333889,1.0,7.425544545347525,Vellore Airport (VOVR),0.8914844235072091,VELLORE TOWN,2.0,30931.0,3.48,8888.218390804597,15285.0,15646.0,27216.0,79650460.0,10.568904385486286,1517.0,1581.0
635001,E16,Branch,1,32.31,KRISHNAGIRI,TAMIL NADU,12.5296,78.2064,1.0,49.56463928941067,Hosur Airport (HSR/VO95),19.487449425783797,Rayakkottai,8.0,49224.0,30.02,1639.7068620919388,24801.0,24423.0,27216.0,79650460.0,16.819493371413046,1517.0,1581.0
636005,E04,Hub,0,18.32,SALEM,TAMIL NADU,11.67014,78.114595,0.0,13.666963340637516,Salem Airport (SXV/VOSM),0.2182033460650128,SALEM JN,1.0,83393.0,5.56,14998.741007194243,42243.0,41150.0,27216.0,79650460.0,28.494799502727293,1517.0,1581.0
638011,E03,Branch,1,12.0,ERODE,TAMIL NADU,11.337861,77.70715,0.0,63.0721314983108,Salem Airport (SXV/VOSM),2.339922353730161,ERODE JN,17.0,23822.0,5.75,4142.95652173913,11910.0,11912.0,27216.0,79650460.0,8.139809261616318,1517.0,1581.0
639002,E05,Branch,1,31.74,KARUR,TAMIL NADU,10.88,77.95,1.0,84.66849666180325,Tiruchirapalli international Airport (TRZ/VOTR),17.556066444850405,KARUR,14.0,38931.0,154.4,252.14378238341968,19260.0,19671.0,27216.0,79650460.0,13.30244792057698,1517.0,1581.0
641006,E21,Branch,1,15.53,COIMBATORE,TAMIL NADU,11.0475766,76.9669067,0.0,8.483933972028527,Coimbatore Airport (CJB/VOCB),3.367128177902037,COIMBATORE NORTH,4.0,128272.0,21.97,5838.5070550751025,64424.0,63848.0,27216.0,79650460.0,43.829637041644204,1517.0,1581.0
641037,E01,Hub,0,26.34,COIMBATORE,TAMIL NADU,11.01788,76.9844,0.0,6.597158398093708,Coimbatore Airport (CJB/VOCB),2.378519682174037,PILAMEDU,2.0,3387.0,10.16,333.36614173228344,1704.0,1683.0,27216.0,79650460.0,1.157313994169023,1517.0,1581.0
641062,E13,Hub,0,14.0,COIMBATORE,TAMIL NADU,11.0775816,77.0633083,0.0,5.506919479571536,Coimbatore Airport (CJB/VOCB),6.6603654647514405,SULUR ROAD,2.0,35618.0,28.94,1230.7532826537663,17893.0,17725.0,27216.0,79650460.0,12.170419204107546,1517.0,1581.0
641602,E02,Branch,1,36.89,TIRUPPUR,TAMIL NADU,11.106386,77.332902,0.0,21.330779830844772,Coimbatore AFS (VOSX),0.9526801350065996,TIRUPPUR,9.0,88832.0,7.71,11521.66018158236,45214.0,43618.0,27216.0,79650460.0,30.35326741364708,1517.0,1581.0
670001,O09,Branch,1,19.93,KANNUR,KERALA,11.874535,75.37019,1.0,1.3902318438116663,Kannur Heliport,0.4727638807204247,KANNUR,3.0,20935.0,2.93,7145.051194539249,9603.0,11332.0,11461.0,33443164.0,7.1744418380988115,475.0,129.0
670641,O89,Branch,1,26.83,KANNUR,KERALA,11.753368,75.490912,0.0,18.19011015905787,Kannur Heliport,0.2273101828859072,THALASSERY,0.0,17104.0,7.98,2143.3583959899747,8007.0,9097.0,11461.0,33443164.0,5.8615549653136885,475.0,129.0
671531,O60,Branch,1,24.31,KASARAGOD,KERALA,12.291546,75.1000968,0.0,55.80514337366234,Kannur Heliport,3.578031867534059,KANHANGAD,0.0,73017.0,164.97,442.6077468630661,34529.0,38488.0,11461.0,33443164.0,25.02298637174401,475.0,129.0
673017,O02,Branch,1,28.27,KOZHIKODE,KERALA,11.26,75.83,0.0,19.256995804787003,Kozhikode International Airport (CCJ/VOCL),5.299017014403803,KALLAYI,0.0,22455.0,3.53,6361.1898016997175,10826.0,11629.0,11461.0,33443164.0,7.695347096943339,475.0,129.0
673121,O25,Branch,1,34.69,WAYANAD,KERALA,11.607338,76.0831018,0.0,54.23592886354312,Kozhikode International Airport (CCJ/VOCL),41.043859121262955,Nilambur Road,4.0,61603.0,82.48,746.884093113482,30016.0,31587.0,11461.0,33443164.0,21.11139911881543,475.0,129.0
676301,O12,Branch,1,21.3,MALAPPURAM,KERALA,10.8505159,76.2710833,0.0,47.0216157441808,Kozhikode International Airport (CCJ/VOCL),2.236433385365311,Vailapuzha,0.0,59292.0,30.23,1961.3628845517696,27835.0,31457.0,11461.0,33443164.0,20.31941750487484,475.0,129.0
678701,O03,Branch,1,23.43,PALAKKAD,KERALA,9.95,76.8167,0.0,50.551317704260455,Kottayam Helipad,41.214057449047694,KURUPPANTHARA,1.0,27676.0,27.79,995.8978049658152,13512.0,14164.0,11461.0,33443164.0,9.484588120908656,475.0,129.0
682018,O23,Branch,1,25.084999999999997,ERNAKULAM,KERALA,9.991416667,76.28141667,0.0,5.276633780637227,INS Garuda (VOCC),0.5131937692630353,ERNAKULAM TOWN,9.0,28359.0,2.04,13901.470588235294,13944.0,14415.0,11461.0,33443164.0,9.718652786560506,475.0,129.0
682034,O06,Hub,0,25.92,ERNAKULAM,KERALA,10.0499709684082,76.2901045490784,0.0,11.856619438406192,INS Garuda (VOCC),1.9547955401088657,EDAPPALLY,0.0,25983.0,8.67,2996.885813148789,12767.0,13216.0,11461.0,33443164.0,8.904395618787744,475.0,129.0
685561,O21,Branch,1,20.56,IDUKKI,KERALA,10.01749,76.9976,0.0,66.90620547986627,Cochin International Airport (COK/VOCI),61.93531895033429,KURUPPANTHARA,2.0,31231.0,277.94,112.36597826869108,15652.0,15579.0,11461.0,33443164.0,10.702889565114114,475.0,129.0
686001,O07,Branch,1,23.01,KOTTAYAM,KERALA,9.591238,76.521798,1.0,1.2924283965082723,Kottayam Helipad,1.1830028099330352,KOTTAYAM,10.0,26436.0,5.75,4597.565217391304,12934.0,13502.0,11461.0,33443164.0,9.05963909395654,475.0,129.0
686101,O17,Branch,1,61.83,KOTTAYAM,KERALA,9.446372,76.534849,1.0,16.089981864740963,Kottayam Helipad,1.538207498435053,CHANGANASERI,1.0,38344.0,11.59,3308.369283865401,18586.0,19758.0,11461.0,33443164.0,13.140520556009594,475.0,129.0
686661,O88,Branch,1,30.52,ERNAKULAM,KERALA,9.980139,76.580462,1.0,27.29197125140633,Cochin International Airport (COK/VOCI),21.756655413570687,PIRAVAM ROAD,6.0,72904.0,61.46,1186.2024080702895,36153.0,36751.0,11461.0,33443164.0,24.984261178158864,475.0,129.0
688007,O01,Branch,1,11.825,ALAPPUZHA,KERALA,9.5138889,76.3243333,0.0,24.497417102089756,Kottayam Helipad,0.6469830653816929,TUMBOLI,0.0,18962.0,2.65,7155.471698113208,9189.0,9773.0,11461.0,33443164.0,6.498293104085486,475.0,129.0
688524,O14,Branch,1,53.72,ALAPPUZHA,KERALA,9.70422,76.32571,1.0,26.03047234169707,Kottayam Helipad,1.4721620665158357,SHERTALAI,8.0,108654.0,55.26,1966.2323561346363,53176.0,55478.0,11461.0,33443164.0,37.23581578585088,475.0,129.0
689101,O11,Branch,1,17.56,PATHANAMTHITTA,KERALA,9.3689444,76.5789722,1.0,25.195586891224547,Kottayam Helipad,2.584029912845129,TIRUVALLA,7.0,28463.0,9.54,2983.5429769392035,13272.0,15191.0,11461.0,33443164.0,9.754293672691974,475.0,129.0
691002,O08,Branch,1,22.49,KOLLAM,KERALA,8.89,76.59,1.0,53.74342933989688,Akkulam Helipad,0.8333667061326853,KOLLAM JN,1.0,14575.0,2.3,6336.956521739131,6936.0,7639.0,11461.0,33443164.0,4.994864570828287,475.0,129.0
695002,O05,Branch,1,36.47,THIRUVANANTHAPURAM,KERALA,8.4831389,76.9691389,0.0,5.546262687529283,Trivandrum International Airport (TRV/VOTV),2.0106910740342205,TRIVANDRUM CENTRAL,4.0,41456.0,6.29,6590.779014308426,20148.0,21308.0,11461.0,33443164.0,14.207005533328124,475.0,129.0
695316,O90,Branch,1,22.22,THIRUVANANTHAPURAM,KERALA,8.61008,76.854259,0.0,11.356556179793452,Akkulam Helipad,2.498447936420612,KANIYAPURAM,0.0,26010.0,9.72,2675.9259259259256,12641.0,13369.0,11461.0,33443164.0,8.913648541148797,475.0,129.0
700004,K04,Branch,1,37.06,KOLKATA,WEST BENGAL,22.5977222,88.3717777,1.0,9.881667782238106,Calcutta International Airport (CCU/VECC),1.0617862343752549,BAGH BAZAR,10.0,76459.0,1.82,42010.43956043956,39829.0,36630.0,17009.0,98428148.0,13.212593728777668,13844.0,69922.0
700014,K01,Branch,1,222.72,KOLKATA,WEST BENGAL,22.3338296,88.2152762,1.0,20.58025782636251,Behala Airport (VEBA),14.539405474531158,Netra,7.0,165412.0,3.89,42522.36503856041,86167.0,79245.0,17009.0,98428148.0,28.584228852909025,13844.0,69922.0
700016,K88,Branch,1,91.96,KOLKATA,WEST BENGAL,22.552,88.3539167,0.0,8.174045073320132,Behala Airport (VEBA),2.087289463883062,EDEN GARDENS,7.0,105207.0,1.59,66167.92452830188,54805.0,50402.0,17009.0,98428148.0,18.18042805194303,13844.0,69922.0
700026,K39,Branch,1,108.21,KOLKATA,WEST BENGAL,22.5215278,88.3470278,0.0,5.832258754983543,Behala Airport (VEBA),1.345808623399026,MILE-FIVEB,13.0,69018.0,1.38,50013.04347826087,35953.0,33065.0,17009.0,98428148.0,11.926742358293687,13844.0,69922.0
700084,K75,Branch,1,32.27,24 PARAGANAS SOUTH,WEST BENGAL,22.3421,88.215,0.0,19.748320373328735,Behala Airport (VEBA),15.433067402342989,Netra,9.0,96426.0,4.43,21766.5914221219,50231.0,46195.0,17009.0,98428148.0,16.66301629489158,13844.0,69922.0
700091,K68,Branch,1,47.25,24 PARAGANAS NORTH,WEST BENGAL,22.5910577,88.4128297,1.0,7.78942452912277,Calcutta International Airport (CCU/VECC),2.2416853393210583,BIDHAN NAGAR,6.0,181785.0,5.86,31021.33105802048,94695.0,87090.0,17009.0,98428148.0,31.413585725497953,13844.0,69922.0
700105,K26,Branch,1,32.03,KOLKATA,WEST BENGAL,22.5511633,88.3933149,1.0,11.510563458193362,Behala Airport (VEBA),2.2438287181743397,PARK CIRCUS,0.0,97490.0,40.05,2434.207240948814,50592.0,46898.0,17009.0,98428148.0,16.846882154076493,13844.0,69922.0
700109,K06,Branch,1,18.93,24 PARAGANAS NORTH,WEST BENGAL,22.68,88.39,1.0,6.473432885191104,Calcutta International Airport (CCU/VECC),0.6053847838210202,AGARPARA,2.0,71904.0,3.69,19486.17886178862,37457.0,34447.0,17009.0,98428148.0,12.425461220706906,13844.0,69922.0
700136,K16,Hub,0,35.285714285714285,24 PARAGANAS NORTH,WEST BENGAL,22.6371124,88.4541249,0.0,2.0273695625307138,Calcutta International Airport (CCU/VECC),3.910970952761305,Durganagar,4.0,203602.0,7.4,27513.783783783783,106054.0,97548.0,17009.0,98428148.0,35.18369987008188,13844.0,69922.0
700143,K07,Branch,1,24.15,24 PARAGANAS SOUTH,WEST BENGAL,22.3057,88.1727,0.0,25.325081573431888,Behala Airport (VEBA),12.601651984968056,Gurudas Nagar,0.0,35627.0,3.57,9979.551820728291,18559.0,17068.0,17009.0,98428148.0,6.156568576297911,13844.0,69922.0
700145,K130,Branch,1,23.15,24 PARAGANAS SOUTH,WEST BENGAL,22.756,88.507,0.0,12.945096875439951,Calcutta International Airport (CCU/VECC),4.309584469815496,Barasat,1.0,106134.0,31.66,3352.305748578648,54237.0,51897.0,17009.0,98428148.0,18.3406194536953,13844.0,69922.0
711106,K08,Branch,1,53.6,HOWRAH,WEST BENGAL,22.5941944,88.3457777,1.0,11.35665812079125,Behala Airport (VEBA),0.7185040402136497,BARRA BAZAR,5.0,148820.0,6.24,23849.358974358973,77524.0,71296.0,17009.0,98428148.0,25.7170274096796,13844.0,69922.0
711409,K95,Hub,0,25.47,HOWRAH,WEST BENGAL,22.62088,88.27653,0.0,13.0863569214003,Behala Airport (VEBA),4.052668867880303,DASHNAGAR,1.0,151959.0,32.04,4742.790262172285,77515.0,74444.0,17009.0,98428148.0,26.259466255526824,13844.0,69922.0
711409,K72,Branch,1,24.26,HOWRAH,WEST BENGAL,22.62088,88.27653,0.0,13.0863569214003,Behala Airport (VEBA),4.052668867880303,DASHNAGAR,1.0,151959.0,32.04,4742.790262172285,77515.0,74444.0,17009.0,98428148.0,26.259466255526824,13844.0,69922.0
712203,K81,Branch,1,21.22,HOOGHLY,WEST BENGAL,22.88825,88.40225,1.0,7.05538431910689,Kanchrapara Airfield,1.6649938376174849,NAIHATI JN,0.0,15980.0,4.21,3795.724465558195,8187.0,7793.0,17009.0,98428148.0,2.7614440129463778,13844.0,69922.0
713104,K45,Branch,1,26.05,PURBA BARDHAMAN,WEST BENGAL,23.2382,87.8605,0.0,26.82890812579364,Guskhara Airfield,1.624482745217006,BARDDHAMAN JN,1.0,10593.0,5.46,1940.10989010989,5513.0,5080.0,17009.0,98428148.0,1.830536697693428,13844.0,69922.0
713201,K14,Branch,1,19.0,PASCHIM BARDHAMAN,WEST BENGAL,23.479919,87.3202429,0.0,10.956774083332602,Panagarh AFS (VEPH),2.832005898587957,DURGAPUR,2.0,29422.0,12.62,2331.378763866878,15327.0,14095.0,17009.0,98428148.0,5.084305741483625,13844.0,69922.0
713305,K22,Branch,1,27.34,PASCHIM BARDHAMAN,WEST BENGAL,23.8371222,86.909973,0.0,23.827705275300406,Burnpur Airport,3.2250801629492516,RUPNARAYANPUR,1.0,35779.0,8.99,3979.8665183537264,18615.0,17164.0,17009.0,98428148.0,6.1828351276100415,13844.0,69922.0
721137,K32,Branch,1,26.965,MEDINIPUR EAST,WEST BENGAL,23.1207,87.8175,0.0,39.09836618448813,Guskhara Airfield,15.32702703742896,BARDDHAMAN JN,2.0,156838.0,57.46,2729.5161851722937,81205.0,75633.0,17009.0,98428148.0,27.102587991394493,13844.0,69922.0
721305,K40,Branch,1,33.3,MEDINIPUR WEST,WEST BENGAL,22.330409,87.318099,0.0,7.9005685318640335,Salua AFS,1.185489951616941,HIJILLI,1.0,20297.0,38.66,525.012933264356,10318.0,9979.0,17009.0,98428148.0,3.507448631462618,13844.0,69922.0
721657,K89,Branch,1,35.27,MEDINIPUR EAST,WEST BENGAL,22.9221,87.9839,0.0,41.4944125650202,Barrackpore AFS (VEPI),5.335015404230856,Tarakeswar,1.0,18522.0,22.33,829.4670846394985,9648.0,8874.0,17009.0,98428148.0,3.200717522390038,13844.0,69922.0
731204,K85,Branch,1,40.86,BIRBHUM,WEST BENGAL,23.747763,87.70125,1.0,32.12705786055612,Guskhara Airfield,1.731248107951945,KOPAI,7.0,143978.0,211.85,679.6223743214539,73150.0,70828.0,17009.0,98428148.0,24.880299505381327,13844.0,69922.0
732142,K23,Branch,1,27.92,MALDAH,WEST BENGAL,25.2886,88.38367,1.0,40.382949732665445,Malda Airport (LDA/VEMH),6.600103543152211,DAULATPUR HAT,0.0,33560.0,75.61,443.8566327205396,17195.0,16365.0,17009.0,98428148.0,5.799378039704659,13844.0,69922.0
734001,K15,Branch,1,22.825000000000003,DARJEELING,WEST BENGAL,26.7375278,88.4138333,1.0,5.60449534326834,Sevoke Road Heliport,1.5517185529767843,Siliguri,12.0,71536.0,20.06,3566.1016949152545,37128.0,34408.0,17009.0,98428148.0,12.36186851753017,13844.0,69922.0
734010,K66,Hub,0,14.93,DARJEELING,WEST BENGAL,26.7083868,88.4268691,0.0,7.763194106049361,Sevoke Road Heliport,0.2976004470034594,SILIGURU TOWN,2.0,37799.0,46.59,811.3114402232238,19341.0,18458.0,17009.0,98428148.0,6.531903770047568,13844.0,69922.0
734010,K129,Branch,1,15.44,DARJEELING,WEST BENGAL,26.7083868,88.4268691,0.0,7.763194106049361,Sevoke Road Heliport,0.2976004470034594,SILIGURU TOWN,2.0,37799.0,46.59,811.3114402232238,19341.0,18458.0,17009.0,98428148.0,6.531903770047568,13844.0,69922.0
734101,K84,Branch,1,22.67,DARJEELING,WEST BENGAL,26.52202,88.717468,1.0,38.496330633859664,Sevoke Road Heliport,0.7000165966840317,JALPAIGURI,3.0,131255.0,33.55,3912.220566318927,66904.0,64351.0,17009.0,98428148.0,22.681685476800805,13844.0,69922.0
736101,K79,Branch,1,14.82,COOCHBEHAR,WEST BENGAL,26.3216111,89.4385556,1.0,3.0211349929124105,Cooch Behar Airport (COH/VECO),4.688192754164467,NEW COOCH BEHAR,6.0,67596.0,22.47,3008.2777036048064,35059.0,32537.0,17009.0,98428148.0,11.681011858518358,13844.0,69922.0
736121,K104,Branch,1,13.42,Alipurduar,WEST BENGAL,26.54,89.45,1.0,19.352159216197936,Hashimara AFS,8.565718906611982,ALIPUR DUAR JN,4.0,64605.0,155.23,416.18888101526767,33261.0,31344.0,17009.0,98428148.0,11.164148338948731,13844.0,69922.0
741102,K03,Branch,1,19.29,NADIA,WEST BENGAL,23.36,88.49,1.0,15.236151335258509,Dhubulia Airstrip,2.7834397494122465,Jalal Khali,1.0,180894.0,57.53,3144.342082391795,93461.0,87433.0,17009.0,98428148.0,31.25961534905645,13844.0,69922.0
741402,K54,Branch,1,19.92,NADIA,WEST BENGAL,23.240991,88.496029,0.0,28.346675499464855,Dhubulia Airstrip,1.234005762789217,Phulia,1.0,59243.0,74.41,796.1698696411773,30516.0,28727.0,17009.0,98428148.0,10.237561180161594,13844.0,69922.0
742101,K37,Branch,1,21.44,MURSHIDABAD,WEST BENGAL,23.0004211,88.0003858,1.0,44.03787902311917,Barrackpore AFS (VEPI),11.684180317994452,JHAPANDANGA,9.0,137864.0,9.37,14713.340448239062,71442.0,66422.0,17009.0,98428148.0,23.823762040102594,13844.0,69922.0
751003,W21,Branch,1,39.54,KHORDHA,ODISHA,20.3283437,85.7648864,1.0,10.843670498280323,Biju Patnaik Airport (BBI/VEBS),8.307409832913445,PATIA HALT,4.0,45515.0,6.69,6803.437967115096,24062.0,21453.0,8535.0,42396978.0,9.162693741992648,2300.0,30441.0
751010,W52,Branch,1,29.96,KHORDHA,ODISHA,21.3025,85.8560556,1.0,83.77749883224824,Charbatia AFS,6.915792092933864,Harichandanpur,1.0,57842.0,14.32,4039.245810055866,30352.0,27490.0,8535.0,42396978.0,11.64426082443895,2300.0,30441.0
752001,W15,Branch,1,22.795,PURI,ODISHA,19.8005,85.8262222,1.0,49.36726771345955,Biju Patnaik Airport (BBI/VEBS),1.8868382084651292,PURI,12.0,181205.0,18.02,10055.771365149834,93547.0,87658.0,8535.0,42396978.0,36.47865362007641,2300.0,30441.0
752050,W40,Branch,1,13.21,KHORDHA,ODISHA,20.1756425,85.6669556,1.0,17.499237031426414,Biju Patnaik Airport (BBI/VEBS),4.986049747987572,KHURDA ROAD JN,2.0,108295.0,127.79,847.4450269974176,55358.0,52937.0,8535.0,42396978.0,21.801030842339753,2300.0,30441.0
753011,W10,Hub,0,27.21,CUTTACK,ODISHA,20.412941,85.8771143,0.0,15.225943240862351,Charbatia AFS,2.1914381617227847,GOPALPUR BALKDA,0.0,16404.0,30.72,533.984375,8362.0,8042.0,8535.0,42396978.0,3.3023141413522445,2300.0,30441.0
754021,W02,Branch,1,18.88,CUTTACK,ODISHA,20.4951913,85.9219611,0.0,7.098944312660077,Charbatia AFS,0.596528451586922,KENDRAPARA ROAD,2.0,9033.0,12.95,697.5289575289576,4660.0,4373.0,8535.0,42396978.0,1.8184469421381873,2300.0,30441.0
754145,W44,Branch,1,23.43,JAGATSINGHAPUR,ODISHA,20.2689,86.649211,0.0,85.41369633247764,Charbatia AFS,3.289220084695489,Paradip,0.0,42014.0,31.11,1350.4982320797171,22149.0,19865.0,8535.0,42396978.0,8.457902117457524,2300.0,30441.0
755019,W05,Branch,1,12.22,JAJAPUR,ODISHA,21.1309433,85.9950295,1.0,65.62245417156635,Charbatia AFS,3.325421051254587,Tomka,3.0,120565.0,145.93,826.1837867470705,61634.0,58931.0,8535.0,42396978.0,24.271123168259773,2300.0,30441.0
756019,W06,Branch,1,28.85,BALESHWAR,ODISHA,21.4941808,86.8299502,1.0,41.20628746164306,Rasgovindpur Airstrip,7.98457602249586,NILGIRI ROAD,1.0,65500.0,144.46,453.41270940052607,33358.0,32142.0,8535.0,42396978.0,13.185904429320413,2300.0,30441.0
759122,W09,Branch,1,19.8,DHENKANAL,ODISHA,20.840951,85.096636,1.0,10.325142088736902,Angul Airport (JSPL),2.085833370343033,ANGUL,5.0,43302.0,12.09,3581.637717121588,22654.0,20648.0,8535.0,42396978.0,8.717191352647824,2300.0,30441.0
760008,W04,Branch,1,28.0,GANJAM,ODISHA,19.3029433,84.8194683,1.0,6.059629032766732,Rangeilunda Airfield,2.5073935359524877,BRAHMAPUR,1.0,29727.0,30.69,968.6217008797654,14884.0,14843.0,8535.0,42396978.0,5.984387495731418,2300.0,30441.0
761029,W54,Branch,1,21.0,GANJAM,ODISHA,19.6802366,85.0937291,1.0,10.97219940318497,INS Chilika,7.04632278520638,KALIJAI,0.0,94886.0,170.72,555.7989690721649,48810.0,46076.0,8535.0,42396978.0,19.10164469741216,2300.0,30441.0
764001,W22,Branch,1,21.59,KORAPUT,ODISHA,18.866704,82.5721042,1.0,2.580531282390775,Jeypore Airport (PYB/VEJP),3.774420634628216,JEYPORE,1.0,48101.0,19.79,2430.570995452249,23885.0,24216.0,8535.0,42396978.0,9.683285327553298,2300.0,30441.0
765001,W08,Branch,1,10.24,RAYAGADA,ODISHA,19.6654,83.15824,1.0,48.110579378785935,Utkela Airport (VEUK),29.85917820183395,Bhawanipatna,2.0,32644.0,14.51,2249.7587870434186,16003.0,16641.0,8535.0,42396978.0,6.571613193751687,2300.0,30441.0
767001,W23,Branch,1,16.54,BALANGIR,ODISHA,20.72209,83.48772,1.0,23.75499291880125,Nuagaon Airport,1.3694855650171485,BALANGIR ROAD,4.0,83670.0,40.27,2077.725353861435,42621.0,41049.0,8535.0,42396978.0,16.843734711469292,2300.0,30441.0
768004,W07,Branch,1,19.13,SAMBALPUR,ODISHA,21.4933248,83.9868737,1.0,9.854388974691538,Hirakud Airport (VEHK),2.06773066245139,SAMBALPUR ROAD,9.0,6277.0,7.84,800.6377551020408,3200.0,3077.0,8535.0,42396978.0,1.2636323985167055,2300.0,30441.0
768201,W12,Branch,1,22.55,JHARSUGUDA,ODISHA,21.85647222,84.01344444,1.0,7.39934965887793,Jharsuguda Airport (VEJH),0.7649262421665936,JHARSUGUDA JN,3.0,33498.0,26.11,1282.9567215626198,17357.0,16141.0,8535.0,42396978.0,6.7435332301278645,2300.0,30441.0
769004,W03,Branch,1,13.0,SUNDARGARH,ODISHA,22.235353,84.7909808,0.0,3.397452903855448,Rourkela Airport (RRK/VERK),1.5959669442624196,PANPOSH,8.0,49663.0,13.38,3711.7339312406575,26219.0,23444.0,8535.0,42396978.0,9.99773391867694,2300.0,30441.0
800001,T32,Branch,1,66.23,PATNA,BIHAR,25.4121565,85.1245655,1.0,20.28071801303723,Patna Airport (PAT/VEPT),5.262304310853364,Nema Halt,37.0,377374.0,21.55,17511.55452436195,200222.0,177152.0,8544.0,120082503.0,26.85056836298624,17120.0,82115.0
800009,T01,Hub,0,27.56,PATNA,BIHAR,25.5521,85.2075,1.0,12.52009424129074,Patna Airport (PAT/VEPT),4.429175961646073,PATNA SAHEB,1.0,88009.0,16.97,5186.152032999411,46696.0,41313.0,8544.0,120082503.0,6.261935562752219,17120.0,82115.0
812001,T06,Branch,1,18.19,BHAGALPUR,BIHAR,25.24218,86.98144,1.0,2.9600397686255726,Bhagalpur Airport,0.468471917027725,BHAGALPUR,30.0,25349.0,6.81,3722.3201174743026,13443.0,11906.0,8544.0,120082503.0,1.80360877387774,17120.0,82115.0
814101,T86,Branch,1,11.71,DUMKA,JHARKHAND,24.244502,87.241744,1.0,3.1988196782189084,Sido Kanhu Airfield,5.183091559949753,Dumka,7.0,187018.0,482.77,387.38529734656254,94554.0,92464.0,4610.0,36373747.0,23.702616615219764,524.0,477.0
814133,T87,Branch,1,11.71,GODDA,JHARKHAND,24.8738284,87.2126263,1.0,46.48779088524175,Bhagalpur Airport,19.898102530801072,Mandar Vidyapith Halt,5.0,347694.0,427.27,813.7571090879304,180046.0,167648.0,4610.0,36373747.0,44.06665444723085,524.0,477.0
821109,T88,Branch,1,12.25,KAIMUR (BHABUA),BIHAR,25.181153,83.669417,1.0,68.71601965926612,BHU Airfield,5.135125784619873,MUTHANI,5.0,363788.0,428.75,848.4851311953353,190234.0,173554.0,8544.0,120082503.0,25.883909764938863,17120.0,82115.0
823001,T07,Branch,1,40.0,GAYA,BIHAR,24.7524663,84.9895549,1.0,3.9779279633553934,Gaya Airport (GAY/VEGY),5.45885043494958,WEST CABIN GAYA,19.0,341675.0,72.3,4725.795297372061,178900.0,162775.0,8544.0,120082503.0,24.310545891935647,17120.0,82115.0
826001,T04,Branch,1,20.67,DHANBAD,JHARKHAND,23.8106944,86.4322222,1.0,2.6853670046784877,Dhanbad Airport (DBD/VEDB),2.2187231551444455,DHANBAD JN,15.0,262270.0,25.2,10407.539682539682,138590.0,123680.0,4610.0,36373747.0,33.24003710698268,524.0,477.0
834001,T14,Branch,1,40.29,RANCHI,JHARKHAND,23.3608611,85.3198056,1.0,5.180913582554612,Ranchi Airport (IXR/VERC),1.6344648714610217,ARGORA,58.0,396497.0,36.28,10928.803748621827,205895.0,190602.0,4610.0,36373747.0,50.251935001362384,524.0,477.0
834010,T02,Hub,0,21.06,RANCHI,JHARKHAND,23.32146,85.364005,0.0,4.3925208702122,Ranchi Airport (IXR/VERC),3.608376515461487,NAMKON,1.0,141654.0,450.35,314.54202287110024,71790.0,69864.0,4610.0,36373747.0,17.95319409902972,524.0,477.0
842002,T05,Branch,1,29.42,MUZAFFARPUR,BIHAR,26.120888,85.36472,1.0,5.255897600185454,Muzzafarpur Airport (MZU/VEMZ),1.3358473856169608,MUZAFFARPUR JN,6.0,151334.0,21.02,7199.524262607041,79950.0,71384.0,8544.0,120082503.0,10.767577821058577,17120.0,82115.0
845401,T36,Branch,1,25.89,PURBI CHAMPARAN,BIHAR,26.5656,85.13756,1.0,52.68125379383276,Muzzafarpur Airport (MZU/VEMZ),17.033780154009495,KURIA,26.0,277607.0,188.01,1476.554438593692,147856.0,129751.0,8544.0,120082503.0,19.75203837981292,17120.0,82115.0
846004,T26,Branch,1,32.87,DARBHANGA,BIHAR,26.1561667,85.8928889,1.0,4.80015081748794,Darbhanga AFS,1.4693615742366026,DARBHANGA JN,13.0,47077.0,3.95,11918.227848101264,24806.0,22271.0,8544.0,120082503.0,3.34957948036776,17120.0,82115.0
854301,T13,Branch,1,15.31,PURNIA,BIHAR,25.771435,87.471035,1.0,6.263096817651022,Chunapur AFS (PUI/VEPU),5.269027965783586,PURNIA JN,29.0,100331.0,25.1,3997.250996015936,52359.0,47972.0,8544.0,120082503.0,7.1386591933381,17120.0,82115.0
